city,state,state_name,county,lat,lng,population,density,timezone,zips
"New York","NY","New York","Queens","40.6943","-73.9249","18832416","10943.7","America/New_York","11229,11228,11226,11225,11224,11222,11221,11220,11385,10169,10168,10167,10165,10162,10282,10280,10040,10044,11109,11102,11103,11106,11104,11697,11694,11692,11693,11691,10271,10279,10278,10075,11249,10452,11451,10475,10474,10471,10470,10473,10472,11223,10103,11368,11369,11366,11367,11364,11365,11362,11363,11360,11361,10028,10029,10026,10027,10024,10025,10022,10023,10020,10021,11212,11213,11210,11211,11216,11217,11214,11215,11218,11219,10152,10153,10154,10310,10311,10312,10314,11439,11432,11433,11430,11436,11434,11435,10453,10451,10457,10456,10455,10454,10459,10458,10128,10004,10005,10006,10007,10001,10002,10003,10009,11238,11239,11230,11231,11232,11233,11234,11235,11236,11237,11379,11378,11375,11374,11377,11371,11370,11373,11372,10170,10171,10172,10173,10174,10177,11356,10039,10038,10035,10034,10037,10036,10031,10030,10033,10032,11201,11209,11203,11205,11204,11207,11206,11208,11411,11412,11413,11414,11415,11416,11417,11418,11419,11101,11105,11001,11005,11004,10065,10069,10199,10309,10308,10307,10306,10305,10304,10303,10302,10301,11429,11428,11421,11420,11423,11422,11424,11427,11426,10466,10467,10464,10465,10462,10463,10460,10461,10468,10469,10119,10115,10112,10110,10111,11359,11358,11357,11355,11354,10019,10018,10013,10012,10011,10010,10017,10016,10014,10008,10041,10043,10055,10060,10081,10087,10090,10101,10102,10104,10105,10106,10107,10108,10109,10113,10114,10116,10117,10118,10120,10121,10122,10123,10124,10125,10126,10129,10130,10131,10132,10133,10138,10150,10151,10155,10156,10157,10158,10159,10160,10163,10164,10166,10175,10176,10178,10179,10185,10203,10211,10212,10213,10242,10249,10256,10258,10259,10260,10261,10265,10268,10269,10270,10272,10273,10274,10275,10276,10277,10281,10285,10286,10313,11120,11202,11241,11242,11243,11245,11247,11251,11252,11256,11351,11352,11380,11386,11405,11425,11431,11437,11499,11690,11695"
"Los Angeles","CA","California","Los Angeles","34.1141","-118.4068","11885717","3165.7","America/Los_Angeles","91367,90291,90293,90292,91316,91311,90035,90034,90037,90031,90039,90008,90004,90005,90006,90007,90001,90002,90003,91504,91040,90710,90089,91307,91344,91345,91340,91342,91343,90036,90247,91411,91436,91371,91608,91605,91604,91607,91606,91601,91602,90402,90068,90069,90062,90063,90061,90066,90067,90064,90065,90248,91326,91324,91325,90013,90012,90011,90010,90017,90016,90015,90014,91364,90028,90095,90094,91042,91352,91356,91406,91402,90041,90042,90043,90044,90045,90046,90047,90048,90049,90019,90018,91423,90210,91303,91304,91306,90079,90071,90077,90059,91331,91330,91335,90026,90027,90024,90025,90023,90020,90021,90029,90272,90732,90731,90230,91405,91403,91401,90033,90032,90038,90057,90052,90058,90744,90501,90502,90009,90030,90050,90051,90053,90054,90055,90060,90070,90072,90074,90075,90076,90078,90080,90081,90082,90083,90084,90085,90086,90087,90088,90093,90099,90134,90140,90189,90213,90294,90295,90733,90734,90748,91041,91043,91305,91308,91309,91313,91327,91328,91333,91334,91337,91346,91353,91357,91365,91392,91393,91394,91395,91396,91404,91407,91408,91409,91410,91412,91413,91416,91426,91470,91482,91499,91603,91609,91610,91614,91615,91616,91617,91618"
"Chicago","IL","Illinois","Cook","41.8375","-87.6866","8489066","4590.3","America/Chicago","60018,60649,60641,60640,60643,60642,60645,60644,60647,60646,60616,60617,60614,60615,60612,60613,60610,60611,60618,60619,60631,60827,60661,60660,60638,60639,60634,60636,60637,60630,60632,60633,60605,60604,60607,60606,60601,60603,60602,60609,60608,60106,60659,60652,60653,60656,60657,60654,60655,60651,60623,60622,60621,60620,60626,60625,60624,60629,60628,60707,60499,60664,60666,60668,60669,60670,60673,60674,60675,60677,60678,60680,60681,60684,60685,60686,60687,60688,60689,60690,60694,60695,60696,60699"
"Miami","FL","Florida","Miami-Dade","25.784","-80.2101","6113982","4791.1","America/New_York","33128,33129,33125,33126,33127,33149,33144,33145,33142,33139,33138,33137,33136,33135,33134,33133,33132,33131,33130,33150,33101,33109,33192,33195,33222,33231,33233,33238,33255,33299"
"Houston","TX","Texas","Harris","29.786","-95.3885","6046392","1386.2","America/Chicago","77069,77068,77061,77060,77063,77062,77065,77064,77067,77066,77346,77571,77036,77037,77034,77035,77032,77033,77030,77031,77038,77449,77093,77044,77043,77042,77204,77598,77018,77019,77015,77016,77017,77010,77011,77012,77013,77094,77091,77092,77053,77345,77547,77080,77025,77024,77027,77026,77021,77020,77023,77022,77029,77028,77096,77090,77098,77099,77078,77079,77072,77073,77070,77071,77076,77077,77074,77075,77407,77047,77046,77045,77041,77040,77048,77336,77339,77338,77489,77003,77002,77007,77006,77005,77004,77009,77008,77450,77086,77089,77088,77083,77082,77081,77087,77085,77084,77054,77055,77056,77057,77058,77059,77396,77051,77506,77504,77001,77052,77201,77202,77203,77205,77206,77207,77208,77210,77212,77213,77215,77216,77217,77218,77219,77220,77221,77222,77223,77225,77226,77227,77228,77229,77230,77231,77233,77234,77235,77236,77237,77241,77242,77243,77244,77245,77248,77249,77251,77252,77253,77254,77255,77256,77257,77259,77261,77262,77263,77266,77269,77270,77271,77272,77273,77274,77275,77282,77284,77287,77288,77289,77291,77292,77293,77297,77299,77315,77325,77411"
"Dallas","TX","Texas","Dallas","32.7935","-96.7667","5843632","1477.1","America/Chicago","75098,75287,75230,75231,75236,75237,75235,75254,75251,75252,75253,75043,75032,75227,75238,75232,75233,75234,75089,75088,75087,75247,75244,75249,75248,75051,75166,75210,75211,75212,75214,75215,75216,75217,75218,75219,75390,75182,75229,75228,75220,75223,75225,75224,75226,75243,75241,75240,75246,75270,75207,75206,75204,75203,75202,75201,75209,75208,75019,75221,75222,75242,75250,75260,75262,75263,75264,75266,75267,75277,75283,75284,75285,75301,75303,75312,75313,75315,75320,75336,75339,75342,75354,75355,75356,75357,75358,75359,75360,75367,75370,75371,75372,75373,75374,75376,75378,75379,75380,75382,75389,75392,75393,75394,75395,75397,75398"
"Philadelphia","PA","Pennsylvania","Philadelphia","40.0077","-75.1339","5696588","4548.5","America/New_York","19154,19151,19150,19153,19152,19102,19103,19106,19107,19104,19108,19109,19128,19129,19120,19121,19122,19123,19124,19125,19126,19127,19112,19111,19115,19114,19116,19119,19118,19148,19149,19146,19147,19144,19145,19142,19143,19140,19141,19139,19138,19137,19136,19135,19134,19133,19132,19131,19130,19019,19092,19093,19101,19105,19110,19155,19160,19161,19162,19170,19171,19172,19173,19175,19176,19177,19178,19179,19181,19182,19183,19184,19185,19187,19188,19190,19191,19192,19193,19194,19195,19196,19197,19244,19255"
"Atlanta","GA","Georgia","Fulton","33.7628","-84.422","5211164","1424.8","America/New_York","30334,30331,30332,30309,30308,30354,30327,30322,30326,30324,30319,30342,30305,30307,30306,30316,30317,30314,30315,30312,30313,30310,30311,30303,30363,30318,30301,30302,30304,30321,30325,30333,30343,30348,30353,30355,30357,30361,30368,30369,30370,30371,30375,30377,30392,30394,30398,31106,31107,31126,31139,31141,31193"
"Washington","DC","District of Columbia","District of Columbia","38.9047","-77.0163","5146120","4245.2","America/New_York","20250,20010,20011,20012,20015,20520,20418,20415,20020,20024,20510,20515,20427,20422,20530,20542,20540,20240,20245,20204,20005,20004,20003,20002,20001,20009,20008,20317,20319,20390,20059,20057,20052,20388,20017,20018,20565,20566,20560,20591,20220,20064,20551,20230,20373,20260,20007,20006,20032,20036,20037,20431,20045,20408,20535,20016,20019,20013,20022,20026,20027,20029,20030,20033,20035,20038,20039,20040,20042,20043,20044,20047,20049,20050,20053,20055,20056,20058,20060,20061,20062,20063,20065,20066,20067,20068,20069,20070,20071,20073,20074,20075,20076,20077,20078,20080,20081,20082,20090,20091,20201,20202,20203,20206,20207,20208,20210,20211,20212,20213,20214,20215,20216,20217,20218,20219,20221,20222,20223,20224,20226,20227,20228,20229,20232,20233,20235,20237,20238,20239,20241,20242,20244,20251,20252,20254,20261,20262,20265,20266,20268,20270,20277,20289,20299,20301,20303,20306,20310,20314,20318,20330,20340,20350,20355,20370,20372,20374,20375,20376,20380,20389,20391,20392,20393,20394,20395,20398,20401,20402,20403,20404,20405,20406,20407,20410,20411,20412,20413,20414,20416,20417,20419,20420,20421,20423,20424,20425,20426,20428,20429,20433,20434,20435,20436,20437,20439,20440,20441,20442,20444,20447,20451,20453,20456,20460,20463,20468,20469,20470,20472,20500,20501,20502,20503,20504,20505,20506,20507,20508,20509,20511,20521,20522,20523,20524,20525,20526,20527,20528,20529,20531,20533,20534,20536,20537,20538,20539,20541,20543,20544,20546,20547,20548,20549,20552,20553,20554,20555,20557,20559,20570,20571,20572,20573,20575,20576,20577,20578,20579,20580,20581,20585,20586,20590,20593,20594,20597,20599,56901,56902,56904,56908,56915,56920,56933,56935,56944,56945,56950,56965,56967,56972,56998,56999"
"Boston","MA","Massachusetts","Suffolk","42.3188","-71.0852","4355184","5303.2","America/New_York","02120,02121,02122,02124,02125,02126,02127,02128,02129,02210,02215,02467,02119,02118,02111,02110,02113,02115,02114,02116,02199,02134,02136,02135,02133,02132,02131,02130,02203,02205,02163,02108,02109,02112,02117,02123,02137,02196,02201,02206,02211,02212,02217,02222,02241,02283,02284,02293,02297,02298"
"Phoenix","AZ","Arizona","Maricopa","33.5722","-112.0892","4065338","1210.3","America/Phoenix","85009,85003,85006,85007,85004,85083,85086,85087,85085,85331,85033,85306,85308,85020,85021,85022,85023,85024,85026,85027,85028,85029,85353,85019,85018,85013,85012,85015,85014,85016,85254,85008,85044,85045,85042,85043,85040,85041,85048,85037,85035,85034,85032,85031,85017,85304,85307,85266,85310,85054,85051,85050,85053,85001,85002,85005,85010,85011,85030,85036,85038,85046,85060,85061,85062,85063,85064,85066,85067,85068,85069,85070,85071,85072,85074,85076,85078,85079,85080,85082"
"Detroit","MI","Michigan","Wayne","42.3834","-83.1024","3716929","1771.8","America/Detroit","48209,48208,48202,48201,48207,48206,48205,48204,48227,48238,48239,48234,48235,48233,48203,48243,48228,48226,48214,48215,48216,48217,48210,48211,48212,48213,48219,48224,48221,48223,48231,48232,48244,48255,48260,48264,48266,48267,48268,48269,48272,48275,48277,48278,48279,48288"
"Seattle","WA","Washington","King","47.6211","-122.3244","3555253","3408","America/Los_Angeles","98109,98108,98105,98104,98107,98106,98101,98103,98102,98154,98122,98121,98126,98125,98178,98174,98177,98144,98146,98195,98199,98118,98119,98116,98117,98115,98112,98164,98134,98136,98133,98111,98113,98114,98124,98127,98129,98139,98141,98145,98161,98165,98170,98175,98181,98185,98191,98194"
"San Francisco","CA","California","San Francisco","37.7558","-122.4449","3364862","6916.7","America/Los_Angeles","94130,94131,94132,94133,94134,94103,94102,94105,94104,94188,94158,94124,94123,94122,94121,94129,94118,94108,94107,94112,94110,94116,94117,94114,94115,94111,94109,94127,94119,94120,94125,94137,94139,94140,94141,94142,94143,94144,94145,94146,94147,94151,94159,94160,94161,94163,94164,94172,94177"
"San Diego","CA","California","San Diego","32.8313","-117.1222","3057778","1640","America/Los_Angeles","92182,92109,92108,92107,92106,92103,92101,92111,92154,92110,92140,92161,92105,92104,92102,92071,92132,92130,92131,92136,92134,92139,92025,92027,92147,92145,92014,92093,92092,92119,92116,92117,92121,92120,92123,92122,92124,92127,92126,92129,92128,92037,92173,92113,92114,92115,92038,92039,92072,92112,92137,92138,92142,92143,92149,92150,92152,92153,92158,92159,92160,92163,92165,92166,92167,92168,92169,92170,92171,92172,92174,92175,92176,92177,92186,92187,92191,92192,92193,92195,92196,92197,92198,92199"
"Minneapolis","MN","Minnesota","Hennepin","44.9635","-93.2678","2906807","3052","America/Chicago","55404,55409,55408,55407,55406,55405,55403,55402,55401,55454,55455,55430,55418,55419,55410,55411,55412,55413,55414,55415,55416,55417,55440,55458,55459,55467,55470,55474,55479,55480,55483,55484,55485,55486,55487,55488"
"Tampa","FL","Florida","Hillsborough","27.9945","-82.4447","2906035","1326.7","America/New_York","33637,33629,33621,33620,33609,33604,33606,33602,33619,33616,33613,33617,33614,33610,33611,33612,33605,33607,33603,33647,33608,33622,33623,33630,33631,33633,33646,33650,33655,33664,33672,33673,33674,33677,33679,33681,33684,33686,33689"
"Brooklyn","NY","New York","Kings","40.6501","-73.9496","2736074","15200.5","America/New_York","11229,11226,11225,11224,11223,11221,11220,11249,11228,11222,11212,11213,11210,11211,11216,11217,11214,11215,11218,11219,11238,11239,11230,11231,11232,11233,11234,11235,11236,11237,11208,11201,11203,11205,11204,11207,11206,11209,11202,11241,11242,11243,11245,11247,11251,11252,11256"
"Denver","CO","Colorado","Denver","39.762","-104.8758","2691349","1800.3","America/Denver","80264,80266,80230,80231,80236,80237,80235,80238,80239,80123,80249,80247,80246,80290,80293,80294,80218,80210,80212,80216,80221,80220,80223,80222,80224,80227,80219,80211,80209,80207,80206,80205,80204,80202,80203,80208,80217,80243,80248,80250,80256,80257,80259,80261,80265,80271,80273,80274,80281,80291,80299"
"Queens","NY","New York","Queens","40.7498","-73.7976","2405464","8503.7","America/New_York","11385,11109,11102,11103,11106,11104,11379,11378,11377,11697,11694,11692,11693,11691,11451,11368,11369,11366,11367,11364,11365,11362,11363,11360,11361,11429,11439,11432,11433,11430,11436,11434,11435,11375,11374,11371,11370,11373,11372,11411,11412,11413,11414,11415,11416,11417,11418,11419,11101,11105,11001,11005,11004,11428,11421,11420,11423,11422,11424,11427,11426,11359,11358,11357,11356,11355,11354,11120,11351,11352,11380,11386,11405,11425,11431,11437,11499,11690,11695"
"Riverside","CA","California","Riverside","33.9381","-117.3949","2288508","1504.7","America/Los_Angeles","92508,92503,92501,92506,92505,92504,92507,92521,92502,92513,92514,92516,92517,92522"
"Las Vegas","NV","Nevada","Clark","36.2333","-115.2654","2256509","1771.4","America/Los_Angeles","89146,89149,89107,89106,89104,89102,89101,89108,89138,89130,89131,89134,89143,89145,89144,89110,89117,89129,89128,89124,89105,89114,89116,89125,89126,89127,89133,89137,89140,89151,89152,89153,89155,89163,89195"
"Baltimore","MD","Maryland","Baltimore","39.3051","-76.6144","2189589","2753.1","America/New_York","21218,21211,21210,21213,21212,21215,21214,21217,21216,21233,21231,21230,21239,21251,21209,21202,21206,21207,21205,21287,21223,21226,21201,21224,21225,21229,21203,21263,21264,21270,21273,21275,21278,21279,21281,21290,21297,21298"
"St. Louis","MO","Missouri","St. Louis","38.6359","-90.2451","2127843","1833.6","America/Chicago","63110,63111,63112,63113,63115,63116,63118,63120,63107,63106,63104,63103,63102,63101,63109,63108,63155,63139,63137,63143,63147,63150,63156,63157,63158,63160,63163,63164,63166,63169,63177,63178,63179,63180,63188,63197"
"Portland","OR","Oregon","Multnomah","45.5371","-122.65","2084045","1858.9","America/Los_Angeles","97227,97221,97220,97229,97203,97202,97201,97206,97205,97204,97209,97208,97258,97266,97219,97213,97236,97232,97233,97230,97239,97218,97214,97215,97216,97217,97210,97211,97212,97207,97228,97238,97240,97242,97250,97251,97252,97253,97254,97256,97280,97282,97283,97286,97290,97291,97292,97293,97294"
"San Antonio","TX","Texas","Bexar","29.4632","-98.5238","2069843","1129","America/Chicago","78112,78239,78259,78258,78252,78251,78250,78257,78256,78255,78254,78208,78201,78202,78203,78204,78205,78207,78245,78242,78248,78231,78230,78233,78232,78235,78234,78237,78238,78209,78109,78266,78264,78260,78219,78218,78217,78216,78215,78214,78213,78212,78211,78210,78244,78247,78240,78249,78073,78023,78222,78223,78220,78221,78226,78227,78224,78225,78228,78229,78206,78241,78246,78265,78268,78269,78270,78278,78279,78280,78283,78284,78285,78288,78289,78291,78292,78293,78294,78295,78296,78297,78298,78299"
"Sacramento","CA","California","Sacramento","38.5677","-121.4685","1962998","2054.1","America/Los_Angeles","95821,95820,95823,95838,95832,95833,95831,95834,95835,95811,95814,95815,95818,95819,95828,95822,95825,95824,95826,95816,95817,94203,94204,94205,94209,94229,94230,94232,94235,94236,94237,94239,94240,94244,94247,94248,94249,94250,94252,94254,94256,94257,94258,94259,94261,94262,94263,94267,94268,94269,94271,94273,94274,94277,94278,94279,94280,94283,94284,94285,94287,94288,94289,94290,94293,94294,94295,94296,94297,94298,94299,95812,95813,95840,95851,95852,95853,95867,95894"
"Austin","TX","Texas","Travis","30.3005","-97.7522","1915031","1144.9","America/Chicago","78749,78748,78741,78742,78745,78744,78747,78746,78717,78712,78719,78617,78739,78735,78736,78730,78731,78732,78733,78705,78704,78701,78703,78702,78758,78759,78752,78753,78750,78751,78756,78757,78754,78652,78723,78722,78721,78727,78726,78725,78724,78729,78728,73301,73344,78651,78708,78709,78710,78711,78713,78714,78715,78718,78720,78755,78760,78761,78762,78763,78765,78766,78767,78768,78772,78773,78774,78778,78779,78783,78799"
"Orlando","FL","Florida","Orange","28.4773","-81.337","1913597","1083.2","America/New_York","32829,32827,32824,32822,32804,32805,32806,32807,32801,32803,32808,32839,32835,32832,32819,32811,32812,32814,32802,32853,32854,32856,32861,32862,32872,32877,32885,32886,32891,32897"
"San Juan","PR","Puerto Rico","San Juan","18.3985","-66.061","1809800","3110.1","America/Puerto_Rico","00918,00913,00912,00911,00917,00915,00926,00927,00924,00925,00923,00920,00921,00906,00907,00901,00909,00969,00908,00910,00919,00922,00928,00929,00931,00935,00936,00937,00939,00940,00955,00975"
"San Jose","CA","California","Santa Clara","37.3012","-121.848","1771563","2148.3","America/Los_Angeles","95119,95118,95128,95124,95125,95122,95008,95002,95117,95116,95111,95110,95113,95112,95126,95127,95120,95123,95148,95133,95132,95131,95130,95136,95134,95139,95138,95037,95013,95129,95121,95101,95103,95106,95109,95115,95141,95150,95151,95153,95154,95155,95156,95157,95158,95159,95160,95161,95164,95172,95173,95190,95191,95192,95193,95194,95196"
"Indianapolis","IN","Indiana","Marion","39.7771","-86.1458","1740984","943.3","America/Indiana/Indianapolis","46234,46237,46218,46219,46217,46214,46260,46268,46226,46225,46183,46231,46235,46236,46239,46254,46250,46208,46201,46203,46202,46205,46204,46206,46256,46259,46227,46224,46222,46221,46220,46229,46228,46113,46278,46241,46240,46207,46209,46230,46242,46244,46245,46247,46251,46253,46255,46262,46277,46282,46283,46285,46288,46298"
"Pittsburgh","PA","Pennsylvania","Allegheny","40.4397","-79.9763","1712828","2117.1","America/New_York","15282,15216,15217,15214,15212,15213,15210,15211,15218,15219,15290,15232,15260,15233,15205,15204,15207,15206,15201,15203,15208,15234,15222,15221,15220,15226,15224,15120,15230,15240,15250,15251,15252,15253,15254,15255,15257,15258,15259,15261,15262,15264,15265,15267,15270,15272,15274,15279,15281,15286,15289,15295"
"Cincinnati","OH","Ohio","Hamilton","39.1413","-84.506","1704916","1534.2","America/New_York","45267,45219,45213,45212,45211,45217,45216,45214,45233,45226,45227,45225,45223,45229,45224,45232,45204,45205,45206,45207,45202,45203,45208,45209,45239,45238,45237,45220,45230,45201,45221,45250,45254,45262,45263,45264,45268,45269,45270,45271,45273,45274,45275,45296,45298,45299,45999"
"Manhattan","NY","New York","New York","40.7834","-73.9662","1694263","28653.9","America/New_York","10169,10168,10167,10165,10162,10282,10280,10040,10044,10271,10279,10278,10075,10103,10028,10029,10026,10027,10024,10025,10022,10023,10020,10021,10152,10153,10154,10128,10004,10005,10006,10007,10001,10002,10003,10009,10170,10171,10172,10173,10174,10177,10039,10038,10035,10034,10037,10036,10031,10030,10033,10032,10065,10069,10199,10119,10115,10112,10110,10111,10019,10018,10013,10012,10011,10010,10017,10016,10014,10008,10041,10043,10055,10060,10081,10087,10090,10101,10102,10104,10105,10106,10107,10108,10109,10113,10114,10116,10117,10118,10120,10121,10122,10123,10124,10125,10126,10129,10130,10131,10132,10133,10138,10150,10151,10155,10156,10157,10158,10159,10160,10163,10164,10166,10175,10176,10178,10179,10185,10203,10211,10212,10213,10242,10249,10256,10258,10259,10260,10261,10265,10268,10269,10270,10273,10274,10275,10276,10277,10281,10285,10286"
"Kansas City","MO","Missouri","Jackson","39.1238","-94.5541","1686807","623.9","America/Chicago","64161,64163,64164,64165,64167,64053,64118,64116,64151,64153,64155,64154,64157,64156,64158,64108,64109,64106,64102,64128,64129,64124,64125,64126,64127,64120,64123,64166,64119,64114,64117,64111,64110,64113,64112,64133,64146,64145,64149,64147,64105,64101,64139,64138,64132,64131,64130,64137,64136,64134,64121,64141,64148,64162,64170,64171,64179,64180,64184,64187,64188,64191,64195,64196,64197,64198,64199,64999"
"Cleveland","OH","Ohio","Cuyahoga","41.4764","-81.6805","1679247","1825.4","America/New_York","44135,44120,44119,44113,44112,44111,44110,44115,44114,44144,44128,44127,44104,44105,44106,44101,44102,44103,44108,44109,44181,44190,44191,44192,44193,44194,44195,44197,44198,44199"
"Columbus","OH","Ohio","Franklin","39.9862","-82.9855","1578153","1579.9","America/New_York","43109,43026,43054,43220,43221,43222,43223,43224,43081,43228,43227,43213,43212,43215,43214,43217,43219,43218,43002,43004,43068,43085,43240,43229,43235,43232,43231,43230,43119,43110,43017,43016,43137,43211,43210,43202,43203,43201,43206,43207,43204,43205,43209,43236,43251,43260,43266,43268,43270,43271,43272,43279,43287,43291"
"Bronx","NY","New York","Bronx","40.8501","-73.8662","1472654","13356.3","America/New_York","10452,10475,10474,10471,10470,10473,10472,10453,10451,10457,10456,10455,10454,10459,10458,11370,10466,10467,10464,10465,10462,10463,10460,10461,10468,10469"
"Charlotte","NC","North Carolina","Mecklenburg","35.2083","-80.8303","1436613","1098.2","America/New_York","28269,28262,28105,28280,28282,28209,28208,28205,28204,28207,28206,28203,28202,28223,28227,28226,28278,28270,28273,28274,28277,28134,28216,28217,28214,28215,28212,28213,28210,28211,28244,28126,28130,28201,28218,28219,28220,28221,28222,28224,28228,28229,28230,28231,28232,28233,28234,28235,28237,28241,28242,28243,28246,28247,28253,28254,28255,28256,28258,28260,28263,28265,28266,28271,28272,28275,28281,28284,28285,28287,28288,28289,28290,28296,28297,28299"
"Virginia Beach","VA","Virginia","Virginia Beach","36.7335","-76.0435","1431821","721.1","America/New_York","23459,23451,23453,23452,23455,23457,23456,23454,23460,23461,23462,23464,23450,23458,23463,23465,23466,23467,23471,23479"
"Jacksonville","FL","Florida","Duval","30.3322","-81.6749","1303156","496.9","America/New_York","32224,32225,32226,32227,32220,32221,32222,32223,32228,32219,32218,32214,32217,32216,32211,32210,32212,32246,32244,32233,32234,32202,32250,32254,32257,32256,32208,32209,32206,32207,32204,32205,32203,32258,32277,32099,32201,32229,32231,32232,32235,32236,32238,32239,32241,32245,32247,32255"
"Milwaukee","WI","Wisconsin","Milwaukee","43.0642","-87.9675","1290221","2287.4","America/Chicago","53203,53202,53207,53206,53205,53204,53209,53208,53233,53218,53219,53214,53215,53216,53210,53211,53212,53213,53295,53225,53224,53221,53220,53223,53222,53228,53201,53237,53259,53263,53274,53278,53288,53290,53293"
"Providence","RI","Rhode Island","Providence","41.823","-71.4187","1270529","3990.1","America/New_York","02903,02906,02907,02908,02904,02905,02909,02912,02918,02901,02902,02940"
"Nashville","TN","Tennessee","Davidson","36.1715","-86.7842","1178679","555.6","America/Chicago","37027,37138,37076,37072,37203,37206,37201,37080,37218,37219,37216,37217,37214,37215,37212,37213,37210,37211,37189,37232,37238,37209,37208,37205,37204,37207,37115,37013,37228,37221,37220,37143,37011,37116,37202,37222,37224,37227,37229,37230,37234,37235,37236,37240,37241,37242,37243,37244,37246,37250"
"Salt Lake City","UT","Utah","Salt Lake","40.7776","-111.9311","1169033","709.9","America/Denver","84116,84115,84114,84113,84112,84111,84128,84150,84180,84108,84101,84102,84103,84104,84105,84106,84138,84110,84122,84132,84133,84134,84139,84143,84145,84147,84148,84151,84152,84158,84199"
"Raleigh","NC","North Carolina","Wake","35.8324","-78.6429","1150010","1204.2","America/New_York","27617,27616,27615,27614,27613,27612,27610,27609,27601,27603,27604,27605,27606,27608,27607,27697,27695,27602,27619,27620,27622,27624,27626,27627,27628,27634,27636,27640,27650,27656,27658,27661,27668,27675,27676,27690,27698"
"Richmond","VA","Virginia","Richmond","37.5295","-77.4756","1081248","1466.4","America/New_York","23222,23223,23298,23284,23220,23221,23226,23227,23224,23225,23230,23235,23234,23219,23173,23218,23232,23249,23260,23261,23269,23274,23276,23278,23282,23285,23286,23289,23290,23291,23292,23295"
"Memphis","TN","Tennessee","Shelby","35.1087","-89.9663","1033394","838.2","America/Chicago","38120,38127,38126,38107,38106,38105,38104,38103,38109,38108,38152,38132,38141,38112,38114,38111,38113,38115,38116,38117,38118,38119,38018,38016,38133,38131,38134,38128,38122,38125,37501,37544,38088,38101,38124,38130,38136,38137,38145,38148,38150,38151,38157,38159,38161,38163,38166,38168,38173,38174,38175,38177,38181,38182,38184,38186,38187,38188,38190,38193,38194,38197"
"Oklahoma City","OK","Oklahoma","Oklahoma","35.4676","-97.5136","1000207","438.4","America/Chicago","73099,73119,73118,73114,73117,73116,73111,73110,73112,73020,73012,73013,73142,73141,73145,73149,73169,73078,73108,73109,73106,73107,74857,73139,73132,73131,73135,73134,73008,73097,73084,73105,73162,73103,73054,73151,73150,73159,73064,73104,73102,73179,73173,73170,73049,73160,73165,73127,73120,73121,73122,73128,73129,73101,73113,73124,73125,73126,73136,73137,73143,73144,73146,73147,73148,73152,73154,73155,73157,73163,73164,73167,73172,73175,73178,73184,73189,73190,73194,73195"
"Hartford","CT","Connecticut","Capitol","41.7661","-72.6834","969171","2665.3","America/New_York","06106,06105,06103,06120,06112,06114,06101,06102,06104,06115,06123,06126,06127,06132,06133,06134,06140,06141,06142,06143,06144,06145,06146,06147,06150,06151,06152,06154,06160,06167,06176,06183"
"Louisville","KY","Kentucky","Jefferson","38.1663","-85.6485","965005","920.7","America/New_York","40245,40242,40241,40218,40219,40214,40216,40211,40213,40059,40291,40299,40220,40223,40222,40229,40228,40023,40272,40207,40209,40258,40118,40018,40027,40225,40261,40268,40269,40281"
"Buffalo","NY","New York","Erie","42.9018","-78.8487","949547","2642.9","America/New_York","14208,14209,14202,14203,14201,14206,14207,14204,14220,14222,14211,14210,14213,14212,14215,14214,14216,14205,14233,14240,14263,14264,14267,14269,14270,14272,14273,14276,14280"
"Fort Worth","TX","Texas","Tarrant","32.7817","-97.3474","941311","1032.7","America/Chicago","76164,76040,76134,76135,76137,76131,76132,76133,76109,76108,76105,76104,76107,76106,76103,76102,76155,76053,76052,76123,76120,76244,76008,76179,76177,76036,76140,76262,76006,76118,76119,76116,76117,76114,76115,76112,76110,76111,76129,76127,76126,76101,76113,76121,76122,76124,76130,76147,76150,76161,76162,76163,76166,76190,76191,76193,76195,76196,76197,76198,76199"
"Bridgeport","CT","Connecticut","Greater Bridgeport","41.1918","-73.1954","921660","3557.4","America/New_York","06605,06604,06607,06606,06608,06610,06601,06602"
"New Orleans","LA","Louisiana","Orleans","30.0687","-89.9288","918752","856.6","America/Chicago","70139,70130,70131,70148,70114,70115,70116,70117,70112,70113,70118,70119,70129,70128,70125,70124,70127,70126,70122,70163,70142,70145,70146,70150,70151,70152,70153,70154,70156,70157,70158,70159,70160,70161,70162,70164,70165,70166,70167,70170,70172,70174,70175,70176,70177,70178,70179,70181,70182,70184,70185,70186,70187,70189,70190,70195"
"Tucson","AZ","Arizona","Pima","32.1541","-110.8787","879871","866.2","America/Phoenix","85705,85707,85706,85709,85710,85756,85723,85726,85724,85701,85708,85719,85748,85745,85747,85716,85714,85715,85712,85713,85711,85734,85730,85721,85702,85703,85717,85725,85731,85732,85738,85751,85754,85775"
"El Paso","TX","Texas","El Paso","31.8476","-106.43","862494","1011.6","America/Denver","79901,79902,79903,79904,79905,79906,79907,79930,79932,79935,79934,79936,79915,79912,79911,79835,79922,79920,79927,79924,79925,79910,79913,79914,79917,79923,79926,79931,79937,79940,79941,79942,79943,79944,79945,79946,79947,79948,79949,79950,79951,79952,79953,79954,79955,79958,79960,79961,79968,79976,79978,79980,79995,79996,79997,79998,79999,88540,88541,88542,88543,88544,88545,88546,88547,88548,88549,88550,88553,88554,88555,88556,88557,88558,88559,88560,88561,88562,88563,88565,88566,88567,88568,88569,88570,88571,88572,88573,88574,88575,88576,88577,88578,88579,88580,88581,88582,88583,88584,88585,88586,88588,88590,88595"
"Omaha","NE","Nebraska","Douglas","41.2627","-96.0529","826161","1318.9","America/Chicago","68112,68114,68117,68116,68118,68182,68183,68105,68108,68178,68110,68122,68127,68124,68111,68022,68137,68135,68132,68144,68134,68131,68130,68102,68106,68107,68104,68164,68152,68154,68101,68103,68109,68119,68139,68145,68172,68175,68176,68179,68180,68197,68198"
"McAllen","TX","Texas","Hidalgo","26.2252","-98.2467","810034","890.1","America/Chicago","78573,78504,78503,78501,78557,78502,78505"
"Birmingham","AL","Alabama","Jefferson","33.5279","-86.7971","778756","523.3","America/Chicago","35218,35214,35215,35217,35210,35211,35212,35213,35224,35221,35222,35203,35207,35206,35205,35204,35209,35208,35094,35254,35068,35061,35228,35234,35235,35233,35243,35242,35249,35201,35202,35220,35232,35238,35246,35255,35259,35261,35270,35282,35283,35285,35287,35290,35291,35292,35294,35295,35298"
"Albuquerque","NM","New Mexico","Bernalillo","35.1054","-106.6465","767499","1159.7","America/Denver","87123,87112,87113,87110,87111,87114,87109,87108,87101,87102,87105,87104,87107,87106,87120,87119,87125,87131,87153,87154,87158,87181,87184,87187,87190,87191,87192,87194,87196,87197,87198,87199"
"Tulsa","OK","Oklahoma","Tulsa","36.1283","-95.9042","740620","805.1","America/Chicago","74137,74134,74132,74133,74130,74136,74135,74146,74145,74127,74126,74112,74114,74115,74119,74015,74106,74129,74128,74120,74171,74110,74116,74117,74107,74105,74103,74104,74108,74101,74121,74141,74147,74148,74149,74150,74152,74153,74155,74156,74158,74159,74169,74170,74172,74182,74186,74187,74192,74193"
"Charleston","SC","South Carolina","Charleston","32.8168","-79.9687","726389","509.3","America/New_York","29414,29424,29425,29455,29405,29407,29401,29403,29409,29492,29412,29402,29413,29417,29422,29457"
"Fresno","CA","California","Fresno","36.783","-119.7939","724547","1810.8","America/Los_Angeles","93740,93741,93730,93650,93702,93703,93701,93706,93704,93705,93722,93728,93720,93721,93726,93727,93711,93710,93707,93708,93709,93714,93715,93716,93717,93718,93724,93729,93744,93745,93750,93755,93760,93761,93764,93765,93771,93772,93774,93775,93776,93777,93778,93779,93790,93791,93792,93793,93794,93844"
"Rochester","NY","New York","Monroe","43.168","-77.6162","694707","2264.3","America/New_York","14608,14609,14606,14607,14604,14605,14627,14620,14621,14619,14615,14614,14617,14611,14610,14613,14612,14642,14602,14603,14638,14639,14643,14644,14646,14647,14649,14650,14651,14653"
"Dayton","OH","Ohio","Montgomery","39.7805","-84.2003","667936","946","America/New_York","45432,45469,45402,45403,45406,45404,45405,45409,45428,45420,45423,45424,45410,45414,45417,45419,45377,45401,45412,45422,45470,45481,45490"
"Cape Coral","FL","Florida","Lee","26.6443","-81.9957","656464","750","America/New_York","33990,33993,33914,33991,33909,33904,33910,33915"
"Provo","UT","Utah","Utah","40.2457","-111.6457","639820","1053.7","America/Denver","84606,84604,84602,84601,84603,84605"
"Colorado Springs","CO","Colorado","El Paso","38.8674","-104.7605","638421","923","America/Denver","80951,80829,80909,80904,80905,80906,80907,80903,80939,80938,80910,80917,80916,80915,80914,80919,80918,80927,80924,80925,80922,80923,80920,80921,80929,80901,80932,80934,80935,80936,80937,80941,80942,80946,80947,80949,80950,80960,80962,80977,80995,80997"
"Mission Viejo","CA","California","Orange","33.6096","-117.6551","634674","2020.5","America/Los_Angeles","92692,92691,92690"
"Allentown","PA","Pennsylvania","Lehigh","40.5961","-75.4756","632175","2754.8","America/New_York","18104,18101,18103,18102,18109,18001,18105"
"Baton Rouge","LA","Louisiana","East Baton Rouge","30.442","-91.1311","630063","993.4","America/Chicago","70836,70808,70809,70802,70803,70801,70806,70807,70805,70820,70825,70819,70813,70812,70815,70814,70816,70804,70821,70822,70823,70827,70831,70833,70835,70873,70874,70891,70892,70893,70894,70895,70898"
"Ogden","UT","Utah","Weber","41.2279","-111.9682","623688","1219.7","America/Denver","84404,84401,84403,84408,84244,84407,84409,84415"
"Knoxville","TN","Tennessee","Knox","35.9692","-83.9496","618226","757.6","America/New_York","37909,37902,37924,37920,37921,37922,37923,37929,37919,37918,37915,37914,37917,37916,37912,37901,37927,37928,37939,37950,37995,37996,37997"
"Grand Rapids","MI","Michigan","Kent","42.9619","-85.6562","611480","1705.4","America/Detroit","49546,49506,49505,49503,49507,49504,49508,49501,49502,49514,49515,49523,49555,49588,49599"
"Columbia","SC","South Carolina","Richland","34.0378","-80.9036","605083","384.8","America/New_York","29203,29207,29205,29208,29209,29225,29212,29210,29201,29206,29204,29202,29214,29215,29216,29217,29218,29220,29224,29226,29240,29250"
"Albany","NY","New York","Albany","42.6664","-73.7987","602242","1805.4","America/New_York","12208,12209,12204,12206,12207,12202,12203,12205,12210,12226,12222,12201,12223,12228,12229,12230,12231,12232,12233,12234,12235,12236,12237,12238,12239,12240,12241,12242,12243,12244,12245,12246,12248,12250,12255,12257,12260,12261"
"Bakersfield","CA","California","Kern","35.3529","-119.0359","578542","1049.2","America/Los_Angeles","93306,93307,93304,93305,93301,93309,93314,93311,93313,93312,93302,93383,93384,93385,93387,93389,93390"
"New Haven","CT","Connecticut","South Central Connecticut","41.3113","-72.9246","565056","2745.3","America/New_York","06519,06511,06510,06513,06512,06515,06501,06502,06503,06505,06506,06507,06508,06509,06520,06521,06530,06531,06532,06533,06534,06535,06536,06540"
"Des Moines","IA","Iowa","Polk","41.5725","-93.6105","560170","930.5","America/Chicago","50309,50312,50314,50315,50316,50317,50310,50313,50319,50321,50320,50311,50301,50302,50303,50304,50305,50306,50307,50308,50318,50328,50329,50330,50331,50332,50335,50340,50380,50381,50391,50392,50393,50394,50395,50396,50936,50940,50947,50950,50980,50981,50982,50983"
"Palm Bay","FL","Florida","Brevard","27.9631","-80.6593","547659","558.1","America/New_York","32909,32908,32905,32907,32976,32902,32906,32910,32911"
"Akron","OH","Ohio","Summit","41.0798","-81.5219","538659","1181.5","America/New_York","44306,44307,44304,44305,44302,44303,44301,44308,44325,44320,44311,44310,44313,44312,44319,44314,44309,44315,44316,44317,44326,44328,44334,44396,44398"
"Concord","CA","California","Contra Costa","37.9722","-122.0016","525233","1569.5","America/Los_Angeles","94518,94519,94565,94521,94520,94522,94524,94527"
"Mesa","AZ","Arizona","Maricopa","33.4015","-111.7178","507478","1381.6","America/Phoenix","85208,85209,85201,85202,85203,85204,85205,85206,85207,85215,85213,85212,85210,85211,85214,85216,85274,85275,85277"
"Wichita","KS","Kansas","Sedgwick","37.6895","-97.3443","501760","927.4","America/Chicago","67230,67235,67260,67217,67216,67215,67214,67213,67212,67211,67210,67219,67218,67223,67220,67226,67202,67203,67204,67205,67206,67207,67208,67209,67201,67275,67276,67277,67278"
"Harrisburg","PA","Pennsylvania","Dauphin","40.2752","-76.8843","499494","2382.2","America/New_York","17101,17102,17103,17104,17120,17110,17105,17108,17121,17122,17123,17124,17125,17126,17127,17128,17129,17130"
"Staten Island","NY","New York","Richmond","40.5834","-74.1496","495747","3286.2","America/New_York","10303,10302,10301,10307,10306,10305,10310,10311,10312,10314,10309,10308,10304,10313"
"Toledo","OH","Ohio","Lucas","41.6638","-83.5827","492076","1287.8","America/New_York","43615,43614,43611,43613,43612,43607,43610,43606,43604,43605,43608,43609,43620,43623,43405,43601,43603,43635,43652,43656,43657,43659,43660,43661,43666,43667,43681,43682,43697,43699"
"Worcester","MA","Massachusetts","Worcester","42.2705","-71.8079","487014","2123.8","America/New_York","01608,01610,01609,01602,01603,01604,01605,01606,01607,01601,01613,01614,01615,01653,01655"
"Port St. Lucie","FL","Florida","St. Lucie","27.2796","-80.3884","473733","714","America/New_York","34986,34984,34983,34987,34952,34953,34985"
"Little Rock","AR","Arkansas","Pulaski","34.7256","-92.3577","467846","645.6","America/Chicago","72211,72210,72212,72223,72227,72209,72202,72201,72206,72207,72204,72205,72103,72215,72217,72219,72222,72225,72231,72255,72260,72295"
"Madison","WI","Wisconsin","Dane","43.0822","-89.393","460255","1272.4","America/Chicago","53706,53704,53705,53703,53726,53792,53719,53718,53715,53714,53717,53716,53711,53713,53701,53702,53707,53708,53725,53774,53777,53782,53783,53784,53785,53786,53788,53790,53793,53794"
"Spokane","WA","Washington","Spokane","47.6671","-117.433","458988","1287.2","America/Los_Angeles","99201,99203,99202,99205,99204,99207,99208,99258,99224,99223,99001,99212,99209,99210,99219,99220,99252,99256,99260"
"Long Beach","CA","California","Los Angeles","33.7977","-118.167","458491","3493.5","America/Los_Angeles","90822,90804,90805,90806,90807,90802,90803,90808,90831,90814,90813,90810,90815,90840,90801,90809,90832,90833,90842,90844,90846,90847,90848,90853"
"Denton","TX","Texas","Denton","33.2175","-97.1418","455152","585.4","America/Chicago","76207,76205,76203,76201,76208,76209,76226,76210,76202,76204,76206"
"Reno","NV","Nevada","Washoe","39.5497","-119.8483","454814","952.8","America/Los_Angeles","89521,89523,89439,89503,89502,89501,89506,89509,89508,89557,89519,89512,89505,89507,89533,89595,89599"
"Boise","ID","Idaho","Ada","43.6005","-116.2308","449428","1068.7","America/Boise","83703,83702,83706,83705,83704,83709,83712,83716,83713,83725,83720,83701,83708,83715,83717,83722,83724,83728,83729,83735,83756,83799"
"Bonita Springs","FL","Florida","Lee","26.3558","-81.7859","445500","550.9","America/New_York","33931,34135,34134"
"Kissimmee","FL","Florida","Osceola","28.3041","-81.4169","442790","1425.5","America/New_York","34743,34746,34741,34744,34745"
"Augusta","GA","Georgia","Richmond","33.3645","-82.0708","439361","257.4","America/New_York","30912,30815,30812,30907,30906,30904,30905,30901,30909,30805,30903,30914,30916,30917,30919,30999"
"Springfield","MA","Massachusetts","Hampden","42.1155","-72.5395","438889","1874.8","America/New_York","01151,01144,01118,01119,01129,01128,01107,01105,01104,01103,01109,01108,01101,01102,01111,01115,01138,01139,01152,01199"
"Oakland","CA","California","Alameda","37.7904","-122.2166","438072","3022.3","America/Los_Angeles","94621,94705,94611,94610,94613,94612,94619,94618,94606,94607,94602,94603,94601,94609,94720,94605,94608,94604,94614,94615,94617,94620,94623,94624,94649,94659,94660,94661,94666"
"Winston-Salem","NC","North Carolina","Forsyth","36.1029","-80.261","434231","724.6","America/New_York","27110,27127,27040,27107,27106,27105,27104,27103,27101,27109,27102,27108,27111,27113,27114,27115,27116,27117,27120,27130,27150,27152,27155,27157,27198,27199"
"Stockton","CA","California","San Joaquin","37.9765","-121.3109","416005","1954.8","America/Los_Angeles","95219,95212,95210,95211,95209,95207,95203,95205,95204,95206,95202,95201,95267,95269,95296,95297"
"Durham","NC","North Carolina","Durham","35.9792","-78.9022","411362","937.2","America/New_York","27703,27705,27704,27707,27701,27708,27712,27713,27706,27710,27715,27717,27722"
"Chattanooga","TN","Tennessee","Hamilton","35.066","-85.2481","410795","495.9","America/New_York","37415,37416,37410,37411,37419,37409,37421,37408,37403,37402,37407,37405,37406,37404,37343,37450,37351,37401,37414,37424"
"Greenville","SC","South Carolina","Greenville","34.8354","-82.3646","408626","914.4","America/New_York","29614,29607,29605,29601,29609,29602,29603,29604,29612,29616"
"Lancaster","PA","Pennsylvania","Lancaster","40.042","-76.3012","408023","3081.6","America/New_York","17603,17602,17601,17608,17622,17699"
"Syracuse","NY","New York","Onondaga","43.0407","-76.1437","407625","2252.8","America/New_York","13210,13214,13290,13224,13207,13206,13205,13204,13203,13202,13208,13244,13201,13217,13218,13221,13235,13252,13261"
"Fayetteville","AR","Arkansas","Washington","36.0714","-94.1661","405556","685.6","America/Chicago","72704,72703,72701,72702"
"Pensacola","FL","Florida","Escambia","30.4413","-87.1911","401535","915.7","America/Chicago","32503,32504,32501,32502,32513,32522,32524,32591"
"Arlington","TX","Texas","Tarrant","32.6998","-97.125","394769","1590.2","America/Chicago","76011,76005,76001,76002,76006,76018,76013,76012,76010,76017,76016,76015,76014,76003,76004,76007,76019,76094,76096"
"Aurora","CO","Colorado","Arapahoe","39.7083","-104.7237","390201","918.3","America/Denver","80247,80137,80045,80018,80019,80016,80014,80015,80012,80013,80010,80017,80011,80040,80041,80042,80044,80046,80047"
"Scranton","PA","Pennsylvania","Lackawanna","41.4044","-75.6649","375462","1160.6","America/New_York","18504,18509,18508,18510,18503,18505,18507,18515,18540"
"Oxnard","CA","California","Ventura","34.1964","-119.1815","373423","2923.8","America/Los_Angeles","93035,93036,93030,93033,93031,93032,93034"
"Indio","CA","California","Riverside","33.7346","-116.2346","371926","1055","America/Los_Angeles","92241,92201,92203"
"Victorville","CA","California","San Bernardino","34.5277","-117.3536","363596","712.3","America/Los_Angeles","92394,92395,92392,92393"
"Trenton","NJ","New Jersey","Mercer","40.2237","-74.7641","362501","4566.7","America/New_York","08638,08611,08618,08629,08609,08608,08601,08603,08604,08605,08607,08625,08645,08646,08647,08666,08695"
"Huntsville","AL","Alabama","Madison","34.6981","-86.6412","359389","375.1","America/Chicago","35801,35803,35802,35805,35806,35741,35824,35763,35757,35756,35810,35811,35816,35896,35742,35762,35804,35807,35809,35814,35815,35893,35894,35895,35897,35899"
"Modesto","CA","California","Stanislaus","37.6375","-121.0028","355686","1946.8","America/Los_Angeles","95358,95356,95355,95354,95351,95350,95352,95353,95397"
"Honolulu","HI","Hawaii","Honolulu","21.3294","-157.846","346323","2205.7","Pacific/Honolulu","96859,96858,96850,96819,96820,96822,96826,96813,96815,96814,96817,96816,96818,96848,96801,96802,96803,96804,96805,96806,96807,96808,96809,96810,96811,96812,96823,96828,96830,96836,96837,96838,96839,96840,96841,96843,96844,96846,96847,96849,96898"
"Greensboro","NC","North Carolina","Guilford","36.0956","-79.8271","345858","858.4","America/New_York","27411,27410,27412,27301,27235,27455,27408,27409,27403,27401,27406,27407,27405,27214,27402,27404,27413,27417,27420,27427,27429,27435,27438,27495,27497,27498,27499"
"Fort Wayne","IN","Indiana","Allen","41.0888","-85.1436","345279","919.8","America/Indiana/Indianapolis","46835,46818,46814,46815,46816,46825,46845,46803,46802,46807,46806,46805,46804,46809,46808,46801,46850,46851,46852,46853,46854,46855,46856,46857,46858,46859,46860,46861,46862,46863,46864,46865,46866,46867,46868,46869,46885,46895,46897"
"Anaheim","CA","California","Orange","33.839","-117.8574","344553","2645.7","America/Los_Angeles","92808,92806,92807,92804,92805,92802,92801,92803,92809,92812,92815,92816,92817,92825,92899"
"Corpus Christi","TX","Texas","Nueces","27.7254","-97.3767","339432","736.3","America/Chicago","78373,78408,78409,78406,78407,78404,78405,78402,78401,78419,78418,78415,78414,78417,78416,78411,78410,78413,78412,78403,78426,78427,78460,78463,78465,78466,78467,78468,78469,78480"
"Fort Collins","CO","Colorado","Larimer","40.5477","-105.0656","339256","1144.7","America/Denver","80528,80521,80526,80524,80525,80523,80527,80553"
"Antioch","CA","California","Contra Costa","37.9787","-121.796","333347","1532.1","America/Los_Angeles","94531,94509"
"Jackson","MS","Mississippi","Hinds","32.3157","-90.2125","331332","518","America/Chicago","39272,39206,39204,39203,39202,39201,39209,39269,39174,39210,39211,39212,39213,39216,39217,39060,39205,39207,39215,39225,39236,39282,39283,39284,39286,39289,39296,39298"
"Fayetteville","NC","North Carolina","Cumberland","35.085","-78.9772","326821","546.1","America/New_York","28390,28304,28306,28307,28301,28303,28308,28305,28311,28310,28314,28302,28309"
"Myrtle Beach","SC","South Carolina","Horry","33.7094","-78.8844","325829","613.7","America/New_York","29572,29577,29578"
"Henderson","NV","Nevada","Clark","36.0133","-115.0381","324523","1035.6","America/Los_Angeles","89044,89052,89054,89005,89002,89074,89015,89014,89011,89012,89009,89077"
"Mobile","AL","Alabama","Mobile","30.6782","-88.1162","324067","473.8","America/Chicago","36652,36606,36607,36604,36605,36602,36603,36608,36609,36688,36582,36615,36617,36611,36610,36619,36618,36695,36693,36601,36616,36628,36633,36640,36644,36660,36670,36675,36689,36691"
"Lexington","KY","Kentucky","Fayette","38.0423","-84.4587","321122","436.8","America/New_York","40526,40509,40504,40502,40503,40508,40505,40507,40517,40536,40513,40511,40510,40516,40515,40514,40506,40512,40522,40523,40524,40533,40544,40546,40550,40555,40574,40575,40576,40577,40578,40579,40580,40581,40582,40583,40588,40591,40598"
"Lansing","MI","Michigan","Ingham","42.7142","-84.5601","318001","1103.8","America/Detroit","48912,48933,48915,48911,48910,48906,48901,48909,48916,48919,48922,48924,48929,48930,48937,48951,48956"
"Savannah","GA","Georgia","Chatham","32.0286","-81.1821","316446","520.5","America/New_York","31302,31409,31408,31401,31405,31404,31407,31406,31421,31419,31415,31403,31412,31416,31418,31420"
"Youngstown","OH","Ohio","Mahoning","41.0993","-80.6463","315751","678.3","America/New_York","44502,44503,44504,44505,44506,44507,44509,44511,44510,44555,44501"
"Ann Arbor","MI","Michigan","Washtenaw","42.2759","-83.731","314647","1648.2","America/Detroit","48103,48104,48105,48108,48109,48113"
"Santa Ana","CA","California","Orange","33.7367","-117.8819","311639","4395.2","America/Los_Angeles","92707,92701,92703,92705,92704,92706,92702,92735,92799"
"Irvine","CA","California","Orange","33.6772","-117.7738","308160","1813.4","America/Los_Angeles","92617,92614,92612,92618,92697,92620,92602,92603,92604,92606,92616,92619,92650,92698"
"St. Paul","MN","Minnesota","Ramsey","44.9478","-93.1039","307762","2286","America/Chicago","55114,55117,55116,55119,55130,55101,55155,55102,55103,55106,55107,55104,55105,55108,55131,55133,55144,55145,55146,55164,55170"
"Poughkeepsie","NY","New York","Dutchess","41.695","-73.9211","307738","2384.9","America/New_York","12601,12603,12602"
"Newark","NJ","New Jersey","Essex","40.7245","-74.1725","307188","4912.5","America/New_York","07103,07102,07105,07104,07107,07106,07108,07112,07114,07101,07175,07188,07191,07192,07193,07195,07198,07199"
"Santa Rosa","CA","California","Sonoma","38.4458","-122.7067","299986","1608.3","America/Los_Angeles","95409,95403,95401,95407,95405,95404,95406"
"Concord","NC","North Carolina","Cabarrus","35.3933","-80.6369","297379","635.6","America/New_York","28025,28027,28026"
"Winter Haven","FL","Florida","Polk","28.0118","-81.7014","296830","614.1","America/New_York","33881,33880,33884,33883,33885,33888"
"Asheville","NC","North Carolina","Buncombe","35.5707","-82.5537","295040","801.1","America/New_York","28806,28805,28804,28803,28801,28776,28810,28814,28815,28816"
"Canton","OH","Ohio","Stark","40.8078","-81.3676","293657","1020.7","America/New_York","44714,44710,44702,44703,44706,44707,44704,44705,44708,44709,44711,44750,44799"
"Lincoln","NE","Nebraska","Lancaster","40.8099","-96.6784","293055","1114.9","America/Chicago","68528,68524,68526,68520,68521,68522,68514,68516,68510,68512,68506,68507,68504,68505,68502,68503,68508,68588,68509,68529,68542,68544,68583"
"Flint","MI","Michigan","Genesee","43.0236","-83.6921","291688","933.3","America/Detroit","48502,48504,48505,48506,48507,48503,48550,48551,48552,48553,48556,48557"
"Lakeland","FL","Florida","Polk","28.0557","-81.9545","290762","678.7","America/New_York","33813,33803,33801,33805,33815,33811,33802,33804,33806"
"Jersey City","NJ","New Jersey","Hudson","40.7184","-74.0686","289691","7584.1","America/New_York","07310,07311,07302,07307,07306,07305,07304,07097,07303,07308,07395,07399"
"Anchorage","AK","Alaska","Anchorage","61.1508","-149.1091","289069","65.4","America/Anchorage","99518,99515,99517,99516,99513,99540,99530,99567,99587,99508,99506,99507,99504,99505,99502,99503,99501,99577,99509,99510,99511,99514,99520,99521,99522,99523,99524,99529,99599"
"Springfield","MO","Missouri","Greene","37.1943","-93.2916","289041","785.4","America/Chicago","65810,65897,65619,65801,65802,65803,65804,65806,65807,65809,65805,65808,65814,65817,65890,65898,65899"
"Plano","TX","Texas","Collin","33.0502","-96.7486","287339","1547.3","America/Chicago","75093,75023,75025,75024,75074,75075,75026,75086"
"Lubbock","TX","Texas","Lubbock","33.5657","-101.8879","283024","704","America/Chicago","79406,79423,79424,79416,79412,79410,79407,79414,79411,79404,79401,79403,79402,79415,79413,79408,79409,79430,79452,79453,79457,79464,79490,79491,79493,79499"
"Davenport","IA","Iowa","Scott","41.5565","-90.6053","282356","607.8","America/Chicago","52802,52803,52801,52806,52807,52804,52805,52808,52809"
"Reading","PA","Pennsylvania","Berks","40.34","-75.9267","280030","3720","America/New_York","19601,19604,19602,19611,19603,19612"
"Shreveport","LA","Louisiana","Caddo","32.4653","-93.7955","278269","655","America/Chicago","71129,71101,71103,71104,71105,71106,71107,71108,71109,71119,71118,71102,71120,71130,71133,71134,71135,71136,71138,71148,71149,71151,71152,71153,71154,71156,71161,71162,71163,71164,71165,71166"
"Chandler","AZ","Arizona","Maricopa","33.2825","-111.8514","278123","1635.8","America/Phoenix","85248,85249,85226,85224,85225,85286,85246"
"South Bend","IN","Indiana","St. Joseph","41.6767","-86.2696","275725","948","America/Indiana/Indianapolis","46616,46635,46628,46601,46613,46617,46619,46614,46615,46626,46634,46660,46680,46699"
"Wilmington","NC","North Carolina","New Hanover","34.2099","-77.8866","275128","891.3","America/New_York","28409,28401,28403,28405,28412,28402,28406,28408"
"Chula Vista","CA","California","San Diego","32.6281","-117.0144","275030","2139.3","America/Los_Angeles","91911,91910,91913,91915,91914,91902,91908,91909,91912,91921"
"Rockford","IL","Illinois","Winnebago","42.2596","-89.064","274256","872.8","America/Chicago","61101,61114,61109,61108,61104,61107,61103,61102,61105,61106,61110,61125,61126"
"Eugene","OR","Oregon","Lane","44.0564","-123.1174","272737","1540.6","America/Los_Angeles","97405,97404,97401,97403,97402,97440"
"Salem","OR","Oregon","Marion","44.9233","-123.0244","272331","1393.7","America/Los_Angeles","97302,97301,97306,97304,97310,97317,97309,97311,97312,97314"
"Gilbert","AZ","Arizona","Maricopa","33.31","-111.7463","271118","1522","America/Phoenix","85233,85234,85236,85297,85296,85295,85298,85244,85299"
"North Las Vegas","NV","Nevada","Clark","36.2883","-115.0888","270773","992.4","America/Los_Angeles","89032,89031,89030,89086,89084,89085,89081,89115,89033,89087"
"Santa Clarita","CA","California","Los Angeles","34.4175","-118.4964","265529","1201.1","America/Los_Angeles","91351,91321,91350,91355,91354,91387,91322,91382,91385,91386"
"Peoria","IL","Illinois","Peoria","40.752","-89.6154","262461","899.5","America/Chicago","61625,61615,61614,61605,61603,61604,61602,61606,61601,61613,61629,61630,61634,61636,61637,61638,61639,61643,61651,61652,61653,61654,61655,61656"
"Tallahassee","FL","Florida","Leon","30.4551","-84.2527","261271","751.8","America/New_York","32310,32312,32313,32317,32399,32307,32306,32304,32303,32301,32309,32308,32311,32302,32314,32315,32316"
"Killeen","TX","Texas","Bell","31.0753","-97.7297","261099","1103.6","America/Chicago","76541,76543,76542,76549,76540,76547"
"St. Petersburg","FL","Florida","Pinellas","27.7931","-82.6652","260646","1628.3","America/New_York","33707,33702,33762,33713,33712,33711,33710,33716,33715,33714,33705,33703,33704,33701,33729,33731,33732,33733,33734,33742,33743,33747"
"Kennewick","WA","Washington","Benton","46.1978","-119.1732","260091","1142.9","America/Los_Angeles","99337,99336,99338"
"Columbus","GA","Georgia","Muscogee","32.51","-84.8771","257578","364.5","America/New_York","31820,31829,31909,31904,31905,31906,31907,31901,31903,31808,31902,31908,31914,31917,31993,31995,31997,31998,31999"
"Laredo","TX","Texas","Webb","27.5625","-99.4874","255949","905.9","America/Chicago","78046,78045,78043,78040,78041,78042"
"Irving","TX","Texas","Dallas","32.8583","-96.9702","255036","1470.2","America/Chicago","75063,75060,75038,75039,75062,75061,75014,75015,75016,75017,75059,75326,75368"
"Round Lake Beach","IL","Illinois","Lake","42.3791","-88.0811","252224","2072.3","America/Chicago","60073"
"Montgomery","AL","Alabama","Montgomery","32.3482","-86.2668","251545","479.3","America/Chicago","36112,36113,36110,36111,36116,36114,36115,36109,36130,36117,36101,36105,36104,36107,36106,36057,36108,36118,36120,36121,36123,36124,36125,36131,36132,36135,36140,36141,36142,36177,36191"
"Chesapeake","VA","Virginia","Chesapeake","36.6778","-76.3023","251153","286.5","America/New_York","23325,23324,23323,23322,23321,23320,23326,23327,23328"
"Glendale","AZ","Arizona","Maricopa","33.5791","-112.2311","250193","1436.5","America/Phoenix","85301,85303,85302,85306,85309,85308,85355,85340,85305,85304,85307,85310,85311,85312,85318"
"Nashua","NH","New Hampshire","Hillsborough","42.7491","-71.491","247828","1141.1","America/New_York","03062,03063,03060,03064,03061"
"York","PA","Pennsylvania","York","39.9651","-76.7315","246769","3270.5","America/New_York","17404,17401,17403,17405"
"Garland","TX","Texas","Dallas","32.91","-96.6304","245298","1665.8","America/Chicago","75043,75044,75041,75040,75042,75046,75047,75049"
"Rock Hill","SC","South Carolina","York","34.9415","-81.0241","244403","648.9","America/New_York","29732,29733,29730,29731"
"Scottsdale","AZ","Arizona","Maricopa","33.6872","-111.8651","242169","508.2","America/Phoenix","85259,85258,85251,85250,85257,85255,85254,85266,85262,85260,85252,85261,85267,85271"
"Aguadilla","PR","Puerto Rico","Aguadilla","18.4382","-67.1537","235546","1701.8","America/Puerto_Rico","00603,00605"
"Arlington","VA","Virginia","Arlington","38.8786","-77.1011","235463","3497","America/New_York","22209,22203,22202,22201,22207,22206,22205,22204,22214,22211,22213,22210,22212,22215,22216,22217,22219,22225,22226,22227,22230,22240,22241,22242,22243,22244,22245,22246,22350"
"Norfolk","VA","Virginia","Norfolk","36.8945","-76.259","235037","1703.4","America/New_York","23509,23508,23507,23504,23503,23502,23505,23518,23510,23511,23513,23517,23551,23523,23501,23506,23514,23515,23519,23529,23541"
"Appleton","WI","Wisconsin","Outagamie","44.278","-88.3892","234701","1137.1","America/Chicago","54914,54915,54913,54911,54912,54919"
"Enterprise","NV","Nevada","Clark","36.0091","-115.2278","232043","1357.5","America/Los_Angeles","89178,89183,89139,89141,89148,89113,89118,89119,89123"
"Gulfport","MS","Mississippi","Harrison","30.4274","-89.0704","231754","503.5","America/Chicago","39501,39503,39507,39502,39505,39506"
"Lafayette","LA","Louisiana","Lafayette","30.2082","-92.0325","231548","835.2","America/Chicago","70508,70507,70506,70503,70501,70502,70504,70505,70509,70593,70596,70598"
"Bremerton","WA","Washington","Kitsap","47.5436","-122.7121","228576","604.8","America/Los_Angeles","98312,98314,98310,98337"
"Fremont","CA","California","Alameda","37.5265","-121.9843","228518","1129.7","America/Los_Angeles","94560,94536,94538,94539,94555,94537"
"Green Bay","WI","Wisconsin","Brown","44.5148","-87.9895","227679","904.9","America/Chicago","54304,54303,54302,54301,54311,54305,54306,54308"
"Fargo","ND","North Dakota","Cass","46.8651","-96.8292","225066","967.9","America/Chicago","58102,58104,58103,58105,58106,58107,58108,58109,58121,58122,58124,58125,58126"
"Deltona","FL","Florida","Volusia","28.905","-81.2137","224303","989.8","America/New_York","32725,32738,32739"
"Brownsville","TX","Texas","Cameron","25.9975","-97.458","223416","544.2","America/Chicago","78521,78520,78526,78575,78578,78566,78522"
"Hialeah","FL","Florida","Miami-Dade","25.8696","-80.3045","221901","3967.9","America/New_York","33014,33016,33010,33012,33013,33018"
"San Bernardino","CA","California","San Bernardino","34.1416","-117.2943","221774","1378.6","America/Los_Angeles","92404,92369,92401,92407,92405,92408,92411,92410,92415,92346,92403,92406,92413,92418,92423,92427"
"Tacoma","WA","Washington","Pierce","47.2431","-122.4531","220482","1712.1","America/Los_Angeles","98422,98403,98404,98405,98408,98409,98402,98406,98407,98466,98465,98416,98418,98444,98421,98401,98411,98412,98413,98415,98417,98419,98448,98471,98481,98490"
"Gainesville","FL","Florida","Alachua","29.6804","-82.3459","219946","866.2","America/New_York","32608,32609,32607,32610,32612,32653,32603,32601,32605,32604,32611,32614,32627,32635"
"Spring Valley","NV","Nevada","Clark","36.0952","-115.2636","219913","2391.4","America/Los_Angeles","89147,89146,89103,89148,89113,89117,89118,89150,89173"
"Clarksville","TN","Tennessee","Montgomery","36.5692","-87.3413","218159","663.2","America/Chicago","42223,37043,37042,37040,37041,37044"
"College Station","TX","Texas","Brazos","30.5852","-96.2959","215768","922.8","America/Chicago","77843,77840,77845,77841,77842,77844,77881"
"Olympia","WA","Washington","Thurston","47.0417","-122.8959","215677","1177.8","America/Los_Angeles","98502,98501,98506,98504,98507,98508"
"Roanoke","VA","Virginia","Roanoke","37.2785","-79.9581","214019","896","America/New_York","24019,24014,24015,24016,24017,24011,24012,24013,24022,24001,24002,24003,24004,24005,24006,24007,24008,24009,24010,24023,24024,24025,24026,24027,24028,24029,24030,24031,24032,24033,24034,24035,24036,24037,24038,24040,24042,24043"
"Portland","ME","Maine","Cumberland","43.6773","-70.2715","213660","1228","America/New_York","04101,04102,04103,04108,04109,04019,04104,04112,04116,04122,04123,04124"
"Fontana","CA","California","San Bernardino","34.0968","-117.4599","211921","1890.3","America/Los_Angeles","92335,92336,92337,92331,92334,92402"
"Spartanburg","SC","South Carolina","Spartanburg","34.9442","-81.9251","210388","735.4","America/New_York","29302,29301,29307,29306,29304,29319"
"Moreno Valley","CA","California","Riverside","33.9244","-117.2045","210378","1583.1","America/Los_Angeles","92551,92553,92555,92557,92552,92554,92556"
"Frisco","TX","Texas","Collin","33.156","-96.8216","210238","1183.5","America/Chicago","75034,75036,75033,75035"
"Yonkers","NY","New York","Westchester","40.9466","-73.8673","209529","4493","America/New_York","10708,10703,10701,10707,10705,10704,10710,10702"
"Thousand Oaks","CA","California","Ventura","34.1914","-118.8756","208302","878.1","America/Los_Angeles","91320,91360,91361,91362,91319,91358,91359"
"Sioux Falls","SD","South Dakota","Minnehaha","43.5396","-96.7311","207795","913","America/Chicago","57108,57104,57105,57106,57107,57103,57197,57110,57117,57101,57109,57186,57193"
"Hagerstown","MD","Maryland","Washington","39.6401","-77.7217","206889","1299.5","America/New_York","21742,21740,21741,21747,21749"
"Evansville","IN","Indiana","Vanderburgh","37.9881","-87.5341","206418","949.4","America/Chicago","47714,47715,47710,47711,47713,47708,47701,47702,47703,47704,47705,47706,47716,47719,47722,47724,47728,47730,47731,47732,47733,47734,47735,47736,47737,47740,47747,47750"
"Amarillo","TX","Texas","Potter","35.1984","-101.8316","205100","748.8","America/Chicago","79121,79109,79101,79102,79103,79104,79106,79107,79118,79111,79110,79114,79116,79117,79120,79166,79168,79172,79174,79178,79189"
"Kalamazoo","MI","Michigan","Kalamazoo","42.2749","-85.5882","204408","1146.1","America/Detroit","49001,49006,49007,49008,49074,49005,49019"
"Lorain","OH","Ohio","Lorain","41.4409","-82.184","203802","1066.5","America/New_York","44052,44053,44055"
"Galveston","TX","Texas","Galveston","29.2484","-94.8913","202810","501.9","America/Chicago","77551,77550,77555,77554,77552,77553"
"McKinney","TX","Texas","Collin","33.2016","-96.667","202314","1142.6","America/Chicago","75069,75072,75070,75071"
"Huntington","WV","West Virginia","Cabell","38.4109","-82.4345","201208","1099.5","America/New_York","25703,25702,25701,25705,25704,25755,25706,25708,25709,25710,25711,25712,25713,25714,25716,25717,25718,25719,25720,25721,25722,25723,25724,25725,25726,25727,25728,25729,25772,25773,25774,25775,25776,25777,25778"
"Nampa","ID","Idaho","Canyon","43.5844","-116.5638","201129","1142.6","America/Boise","83651,83687,83686"
"Hickory","NC","North Carolina","Catawba","35.741","-81.3223","200500","523","America/New_York","28601,28602,28603"
"Waterbury","CT","Connecticut","Naugatuck Valley","41.5582","-73.0361","199965","1546.2","America/New_York","06708,06702,06704,06705,06706,06710,06701,06703,06720,06721,06722,06723,06724,06725,06726"
"Sunrise Manor","NV","Nevada","Clark","36.1783","-115.0487","199099","2280.2","America/Los_Angeles","89104,89142,89110,89115,89156,89121,89122,89162,89180"
"Grand Prairie","TX","Texas","Dallas","32.6871","-97.0208","198564","1058.6","America/Chicago","75052,75050,75051,75054,75104,75053,75265"
"Ocala","FL","Florida","Marion","29.178","-82.1511","197770","522","America/New_York","34475,34474,34471,34470,34477,34478,34483"
"Waco","TX","Texas","McLennan","31.5599","-97.1882","197594","602.1","America/Chicago","76798,76710,76711,76712,76708,76701,76707,76706,76704,76702,76703,76714,76797,76799"
"Overland Park","KS","Kansas","Johnson","38.887","-94.687","197199","1011.4","America/Chicago","66214,66210,66211,66212,66213,66221,66223,66209,66202,66207,66204,66013,66251,66085,66224,66201,66225,66276,66282,66283"
"Frederick","MD","Maryland","Frederick","39.4337","-77.4141","196743","1299.1","America/New_York","21705,21702,21701,21709"
"Huntington Beach","CA","California","Orange","33.696","-118.0018","196010","2804.8","America/Los_Angeles","92648,92649,92646,92647,90742,92605,92615"
"Santa Barbara","CA","California","Santa Barbara","34.4285","-119.7202","194950","1743.9","America/Los_Angeles","93105,93101,93103,93109,93102,93120,93121,93130,93140,93190"
"Peoria","AZ","Arizona","Maricopa","33.7843","-112.2989","194338","424.6","America/Phoenix","85373,85381,85383,85382,85303,85324,85345,85380,85385"
"Cedar Rapids","IA","Iowa","Linn","41.9662","-91.6783","192755","708","America/Chicago","52404,52405,52401,52411,52402,52403,52406,52407,52408,52409,52410,52497,52498,52499"
"Vancouver","WA","Washington","Clark","45.6366","-122.5967","192696","1524.5","America/Los_Angeles","98684,98664,98665,98660,98661,98662,98663,98682,98683,98687"
"Glendale","CA","California","Los Angeles","34.1819","-118.2468","192270","2435.7","America/Los_Angeles","91210,91214,91201,91205,91208,91203,91202,91204,91207,91206,91046,91020,91209,91221,91222,91225,91226"
"Gastonia","NC","North Carolina","Gaston","35.2494","-81.1854","189767","586.5","America/New_York","28054,28056,28052"
"Spring Hill","FL","Florida","Hernando","28.4798","-82.53","188743","765.6","America/New_York","34608,34609,34604,34606,34611"
"Murfreesboro","TN","Tennessee","Rutherford","35.849","-86.4121","187601","942.5","America/Chicago","37132,37130,37129,37128,37127,37131,37133"
"Tempe","AZ","Arizona","Maricopa","33.3881","-111.9319","186419","1800.3","America/Phoenix","85281,85282,85283,85284,85280,85285,85287,85288"
"Paradise","NV","Nevada","Clark","36.0872","-115.1355","186178","1695.2","America/Los_Angeles","89103,89109,89158,89169,89118,89119,89121,89120,89123,89111,89132,89136,89154,89157,89160,89170,89177,89193"
"Newport News","VA","Virginia","Newport News","37.1051","-76.5185","184774","1034","America/New_York","23601,23603,23608,23604,23605,23606,23607,23602,23609,23612,23628,23630"
"Erie","PA","Pennsylvania","Erie","42.1167","-80.0733","184332","1900.2","America/New_York","16546,16510,16508,16507,16502,16504,16503,16550,16501,16511,16512,16514,16522,16530,16534,16538,16541,16544,16553"
"Fort Lauderdale","FL","Florida","Broward","26.1412","-80.1464","183032","2043.5","America/New_York","33301,33304,33305,33306,33308,33309,33334,33316,33315,33312,33311,33320,33338,33339,33340,33346,33348,33394"
"Gainesville","GA","Georgia","Hall","34.2902","-83.8294","182116","503","America/New_York","30501,30507,30504"
"Aurora","IL","Illinois","Kane","41.7638","-88.2902","179867","1541.1","America/Chicago","60505,60506,60504,60502,60503,60519,60507,60568,60569,60572,60598,60599"
"Mauldin","SC","South Carolina","Greenville","34.7821","-82.3032","179196","808.1","America/New_York","29662,29607,29681"
"Ontario","CA","California","San Bernardino","34.0393","-117.6064","178347","1377.6","America/Los_Angeles","91762,91761,91764,91743,91758"
"Elk Grove","CA","California","Sacramento","38.4161","-121.3842","177221","1606.2","America/Los_Angeles","95624,95757,95758,95759"
"Panama City","FL","Florida","Bay","30.1995","-85.6003","177125","372.4","America/Chicago","32401,32404,32405,32402,32412"
"Cary","NC","North Carolina","Wake","35.7819","-78.8195","176686","1118.9","America/New_York","27560,27518,27519,27511,27513,27512"
"Hemet","CA","California","Riverside","33.7341","-116.9969","176009","1196.1","America/Los_Angeles","92545,92543,92546"
"Danbury","CT","Connecticut","Western Connecticut","41.4015","-73.4709","175074","790.8","America/New_York","06810,06811,06813"
"Rancho Cucamonga","CA","California","San Bernardino","34.1247","-117.5667","174693","1450.2","America/Los_Angeles","91730,91701,91737,91739,91729"
"Salinas","CA","California","Monterey","36.6883","-121.6317","172995","2659.8","America/Los_Angeles","93901,93905,93906,93902,93915"
"Oceanside","CA","California","San Diego","33.2247","-117.3083","172542","1614.3","America/Los_Angeles","92058,92054,92057,92056,92049,92051,92052,92068"
"Vallejo","CA","California","Solano","38.1125","-122.2342","171414","1581.2","America/Los_Angeles","94592,94591,94589,94590"
"High Point","NC","North Carolina","Guilford","35.991","-79.9937","171342","774.7","America/New_York","27265,27282,27235,27268,27262,27263,27260,27261,27264"
"Garden Grove","CA","California","Orange","33.7787","-117.9601","170603","3669","America/Los_Angeles","92843,92840,92841,92844,92845,92842,92846"
"Pembroke Pines","FL","Florida","Broward","26.0128","-80.3382","170557","2015","America/New_York","33029,33028,33025,33024,33026,33023,33027,33084"
"Lancaster","CA","California","Los Angeles","34.6935","-118.1753","170013","696.2","America/Los_Angeles","93535,93534,93536,93539,93584"
"Marysville","WA","Washington","Snohomish","48.0809","-122.1561","168664","1331.5","America/Los_Angeles","98271,98270"
"Bayamon","PR","Puerto Rico","Bayamn","18.3794","-66.1635","167312","2384.9","America/Puerto_Rico","00959,00957,00956,00934,00960,00961,00916"
"Fredericksburg","VA","Virginia","Fredericksburg","38.2992","-77.4872","166746","1048.6","America/New_York","22401,22404,22412"
"Visalia","CA","California","Tulare","36.3276","-119.3269","166273","1430.5","America/Los_Angeles","93277,93291,93292,93278,93279,93290"
"Tuscaloosa","AL","Alabama","Tuscaloosa","33.2348","-87.5268","166253","664.9","America/Chicago","35475,35476,35405,35404,35406,35401,35487,35403,35407,35486"
"Palmdale","CA","California","Los Angeles","34.5944","-118.1057","165487","602.4","America/Los_Angeles","93591,93552,93551,93550,93590,93599"
"Santa Cruz","CA","California","Santa Cruz","36.9789","-122.0346","165263","1847.3","America/Los_Angeles","95065,95064,95060,95062,95061,95063,95067"
"Medford","OR","Oregon","Jackson","42.3372","-122.854","164628","1158.9","America/Los_Angeles","97504,97501"
"Norwich","CT","Connecticut","Southeastern Connecticut","41.5495","-72.0882","163299","550.2","America/New_York","06380,06389,06360"
"Merced","CA","California","Merced","37.3057","-120.4779","163257","1490.9","America/Los_Angeles","95348,95340,95341,95343"
"Manchester","NH","New Hampshire","Hillsborough","42.9848","-71.4447","162716","1347.3","America/New_York","03109,03104,03101,03103,03102,03105,03108,03111"
"Odessa","TX","Texas","Ector","31.8801","-102.3448","162648","846.3","America/Chicago","79762,79761,79763,79765,79768"
"Muskegon","MI","Michigan","Muskegon","43.2281","-86.2562","162458","1015.6","America/Detroit","49442,49443,49440,49441"
"Leesburg","FL","Florida","Lake","28.7672","-81.8962","161515","279.3","America/New_York","34748,34762,34736,34749,34789"
"Lafayette","IN","Indiana","Tippecanoe","40.3991","-86.8593","160373","898.1","America/Indiana/Indianapolis","47909,47905,47904,47901,47902,47903"
"Hayward","CA","California","Alameda","37.6328","-122.0766","159201","1341.6","America/Los_Angeles","94541,94542,94544,94545,94587,94540,94543,94557"
"Corona","CA","California","Riverside","33.8616","-117.5649","158839","1537.3","America/Los_Angeles","92882,92880,92881,92879,92877,92878"
"Paterson","NJ","New Jersey","Passaic","40.9147","-74.1624","157660","7235.4","America/New_York","07522,07524,07514,07513,07505,07501,07504,07503,07502,07507,07509,07510,07533,07543,07544"
"Alexandria","VA","Virginia","Alexandria","38.8185","-77.0861","156788","4053.2","America/New_York","22302,22301,22304,22305,22311,22314,20598,22320,22331,22332,22333,22334"
"Macon","GA","Georgia","Bibb","32.8065","-83.6974","156543","242.4","America/New_York","31210,31052,31211,31213,31216,31217,31220,31207,31206,31204,31201,31202,31203,31205,31208,31209,31221,31294,31295,31296"
"Lakewood","CO","Colorado","Jefferson","39.6977","-105.1172","156309","1388","America/Denver","80232,80235,80214,80215,80227,80226,80228,80201,80225"
"Springfield","IL","Illinois","Sangamon","39.7709","-89.654","156240","716.7","America/Chicago","62711,62712,62629,62702,62703,62701,62706,62707,62704,62705,62715,62716,62719,62722,62726,62736,62739,62756,62757,62761,62762,62763,62765,62766,62767,62769,62776,62777,62781,62786,62796"
"Kansas City","KS","Kansas","Wyandotte","39.1235","-94.7443","154776","479.1","America/Chicago","66101,66102,66103,66104,66105,66106,66109,66160,66112,66111,66115,66118,66110,66117,66119"
"Burlington","NC","North Carolina","Alamance","36.076","-79.4685","154504","734.7","America/New_York","27217,27215"
"Warner Robins","GA","Georgia","Houston","32.5961","-83.6527","154327","811.6","America/New_York","31088,31005,31093,31099"
"Sunnyvale","CA","California","Santa Clara","37.3836","-122.0255","153455","2685.8","America/Los_Angeles","94085,94086,94087,94089,94088"
"Hollywood","FL","Florida","Broward","26.0293","-80.1679","152935","2166.9","America/New_York","33024,33021,33023,33022,33020,33004,33316,33312,33019,33081,33082,33302"
"Roseville","CA","California","Placer","38.7703","-121.3196","152438","1335","America/Los_Angeles","95661,95747,95678"
"New Bedford","MA","Massachusetts","Bristol","41.6697","-70.9428","152104","1944.4","America/New_York","02740,02744,02745,02746,02741,02742"
"South Lyon","MI","Michigan","Oakland","42.4614","-83.6526","151231","1220.3","America/Detroit","48178"
"Bellevue","WA","Washington","King","47.5951","-122.1535","151199","1744.3","America/Los_Angeles","98004,98005,98006,98007,98008,98009,98015"
"Fairfield","CA","California","Solano","38.2583","-122.0335","150794","1114","America/Los_Angeles","94533,94534,94535"
"Binghamton","NY","New York","Broome","42.1014","-75.9093","150564","1744.8","America/New_York","13904,13905,13901,13903"
"Topeka","KS","Kansas","Shawnee","39.0346","-95.6955","150343","786.6","America/Chicago","66621,66622,66609,66608,66607,66606,66605,66604,66603,66619,66611,66612,66614,66616,66601,66624,66625,66626,66629,66636,66647,66667,66675,66683,66699"
"Escondido","CA","California","San Diego","33.1348","-117.0723","149913","1549.6","America/Los_Angeles","92029,92025,92026,92027,92030,92033,92046"
"Joliet","IL","Illinois","Will","41.5188","-88.1499","149785","872.5","America/Chicago","60421,60586,60432,60433,60431,60436,60435,60434"
"Surprise","AZ","Arizona","Maricopa","33.6815","-112.4515","149519","522.4","America/Phoenix","85361,85379,85388,85387,85374,85378"
"Naperville","IL","Illinois","DuPage","41.748","-88.1659","149424","1466","America/Chicago","60540,60563,60564,60565,60567"
"Pasadena","TX","Texas","Harris","29.6575","-95.1498","149345","1319.8","America/Chicago","77058,77059,77586,77506,77507,77504,77505,77502,77503,77258,77501,77508"
"Mesquite","TX","Texas","Dallas","32.7602","-96.5865","148848","1170.4","America/Chicago","75149,75126,75150,75181,75185,75187"
"Champaign","IL","Illinois","Champaign","40.1142","-88.2737","148477","1489.3","America/Chicago","61822,61820,61821,61824,61825,61826"
"Pomona","CA","California","Los Angeles","34.0585","-117.7626","148391","2492.8","America/Los_Angeles","91768,91766,91767,91769"
"Houma","LA","Louisiana","Terrebonne","29.58","-90.7059","147841","874.3","America/Chicago","70363,70360,70361"
"Athens","GA","Georgia","Clarke","33.9508","-83.3689","147368","421.1","America/New_York","30602,30622,30601,30605,30606,30607,30609,30683,30603,30608"
"St. George","UT","Utah","Washington","37.0758","-113.5752","147347","494.7","America/Denver","84770,84790,84791"
"Beaumont","TX","Texas","Jefferson","30.0849","-94.1451","146554","534.5","America/Chicago","77708,77705,77706,77707,77701,77702,77703,77713,77704,77710,77720,77725,77726"
"Elkhart","IN","Indiana","Elkhart","41.6916","-85.9627","146511","737.8","America/Indiana/Indianapolis","46514,46517,46516,46515"
"Lake Charles","LA","Louisiana","Calcasieu","30.201","-93.2111","145110","664.4","America/Chicago","70605,70607,70601,70609,70615,70629,70602,70606,70612,70616"
"Santa Maria","CA","California","Santa Barbara","34.9333","-120.4431","144857","1859.9","America/Los_Angeles","93454,93455,93458"
"Yuma","AZ","Arizona","Yuma","32.5995","-114.5491","144509","314","America/Phoenix","85365,85364,85369"
"Olathe","KS","Kansas","Johnson","38.8833","-94.82","143720","861.5","America/Chicago","66062,66061,66051,66063"
"Midland","TX","Texas","Midland","32.0243","-102.1147","143714","679.3","America/Chicago","79701,79706,79707,79705,79703,79702,79708,79711"
"Greeley","CO","Colorado","Weld","40.4152","-104.7706","143554","842.6","America/Denver","80631,80634,80632,80633,80638,80639"
"Torrance","CA","California","Los Angeles","33.8346","-118.3416","143499","2700.6","America/Los_Angeles","90277,90501,90503,90505,90504,90507,90508,90509,90510"
"Thornton","CO","Colorado","Adams","39.9197","-104.9438","142878","1510.4","America/Denver","80260,80233,80241,80640,80023,80229,80602,80614"
"Las Cruces","NM","New Mexico","Doa Ana","32.3265","-106.7893","142432","565.2","America/Denver","88012,88011,88005,88007,88001,87654,88006,88013"
"Columbia","MO","Missouri","Boone","38.9472","-92.3268","141811","727","America/Chicago","65202,65203,65201,65215,65216,65211,65217,65218,65299"
"Fullerton","CA","California","Orange","33.8841","-117.9279","141278","2433","America/Los_Angeles","92835,92833,92832,92831,92834,92836,92837,92838"
"Grand Junction","CO","Colorado","Mesa","39.0877","-108.5673","141008","635","America/Denver","81503,81506,81507,81505,81504,81501,81502"
"Carolina","PR","Puerto Rico","Carolina","18.4054","-65.9792","139051","2592.1","America/Puerto_Rico","00979,00987,00982,00983,00985,00981,00984,00986,00988"
"Metairie","LA","Louisiana","Jefferson","29.9977","-90.178","138995","2317.3","America/Chicago","70002,70003,70001,70006,70005,70004,70009,70010,70011,70033,70055"
"Orange","CA","California","Orange","33.8038","-117.8218","138723","2086.8","America/Los_Angeles","92868,92869,92866,92867,92865,92856,92857,92863,92864"
"Warren","MI","Michigan","Macomb","42.4934","-83.027","138128","1551.4","America/Detroit","48092,48093,48091,48089,48088,48397"
"West Valley City","UT","Utah","Salt Lake","40.6886","-112.0123","137955","1486.7","America/Denver","84119,84120,84128,84118,84125,84126,84127,84130,84131,84170"
"Hampton","VA","Virginia","Hampton","37.0551","-76.363","137334","1030.4","America/New_York","23665,23651,23681,23605,23661,23668,23663,23666,23667,23664,23669,23670"
"Pasadena","CA","California","Los Angeles","34.1597","-118.139","136462","2294.8","America/Los_Angeles","91103,91101,91104,91125,91106,91107,91105,91102,91109,91110,91114,91115,91116,91117,91121,91123,91124,91126,91129,91182,91184,91188,91189,91199"
"Miramar","FL","Florida","Broward","25.9773","-80.3351","135986","1819.7","America/New_York","33029,33025,33023,33027"
"Elizabeth","NJ","New Jersey","Union","40.6658","-74.1913","135887","4259.1","America/New_York","07208,07202,07201,07206,07207"
"Stamford","CT","Connecticut","Western Connecticut","41.1039","-73.5585","135806","1393.5","America/New_York","06906,06907,06905,06902,06903,06901,06904,06910,06911,06912,06913,06914,06926,06927"
"Racine","WI","Wisconsin","Racine","42.7274","-87.8135","135512","1925.4","America/Chicago","53405,53404,53406,53403,53402,53401,53408"
"Kent","WA","Washington","King","47.3887","-122.2128","135015","1540.8","America/Los_Angeles","98031,98030,98032,98042,98035,98064,98089"
"Yakima","WA","Washington","Yakima","46.5923","-120.5496","134003","1330.9","America/Los_Angeles","98901,98903,98902,98908,98904,98907"
"Coral Springs","FL","Florida","Broward","26.2702","-80.2591","133962","2262.2","America/New_York","33071,33076,33065,33067,33075,33077"
"Sterling Heights","MI","Michigan","Macomb","42.5809","-83.0305","133473","1413.9","America/Detroit","48310,48313,48312,48314,48311"
"Billings","MT","Montana","Yellowstone","45.7891","-108.5526","133173","991.9","America/Denver","59106,59105,59102,59101,59104,59107,59108,59115,59116,59117"
"Bloomington","IL","Illinois","McLean","40.4757","-88.9703","133107","1120.8","America/Chicago","61701,61705,61704,61709,61710,61791"
"Charleston","WV","West Virginia","Kanawha","38.3484","-81.6322","133045","589.3","America/New_York","25387,25305,25304,25303,25302,25301,25311,25314,25317,25321,25322,25323,25324,25325,25326,25327,25328,25329,25330,25331,25332,25333,25334,25335,25336,25337,25338,25339,25350,25364,25375,25392,25396"
"Carrollton","TX","Texas","Dallas","32.989","-96.8999","132741","1398.2","America/Chicago","75007,75006,75010,75011"
"Tyler","TX","Texas","Smith","32.3184","-95.3062","131037","719.7","America/Chicago","75709,75702,75703,75701,75711,75710,75712,75713,75798,75799"
"Iowa City","IA","Iowa","Johnson","41.6559","-91.5303","129897","1127.9","America/Chicago","52245,52246,52240,52242,52243,52244"
"Johnson City","TN","Tennessee","Washington","36.3406","-82.3806","129818","630.6","America/New_York","37614,37615,37601,37604,37602,37605,37684"
"Santa Clara","CA","California","Santa Clara","37.3646","-121.968","129239","2730.2","America/Los_Angeles","95054,95050,95051,95053,95052,95055,95056"
"Bellingham","WA","Washington","Whatcom","48.7548","-122.469","128737","1264.7","America/Los_Angeles","98225,98226,98229,98228"
"Norman","OK","Oklahoma","Cleveland","35.2335","-97.3471","128714","278.2","America/Chicago","73019,73026,73072,73070,73071,74857,73069,73068"
"Coeur d'Alene","ID","Idaho","Kootenai","47.704","-116.7936","128680","1271.6","America/Los_Angeles","83815,83814,83816"
"Fort Smith","AR","Arkansas","Sebastian","35.3495","-94.3695","128384","538.3","America/Chicago","72908,72901,72904,72923,72916,72903,72906,72913,72914,72917,72918,72919"
"Lewisville","TX","Texas","Denton","33.0454","-96.9815","128313","1218.5","America/Chicago","75067,75065,75056,75057,75077,75029"
"Dover","DE","Delaware","Kent","39.161","-75.5202","128045","640.2","America/New_York","19902,19901,19904,19905,19906"
"Yuba City","CA","California","Sutter","39.1357","-121.6383","127854","1620.5","America/Los_Angeles","95991,95993"
"Lehigh Acres","FL","Florida","Lee","26.612","-81.6388","127391","530.6","America/New_York","33936,33973,33972,33971,33976,33974,33970"
"Abilene","TX","Texas","Taylor","32.4543","-99.7384","127130","460.2","America/Chicago","79607,79605,79699,79603,79602,79601,79606,79604,79608,79697,79698"
"Simi Valley","CA","California","Ventura","34.2663","-118.749","126503","1168.8","America/Los_Angeles","93063,93065,93062,93094,93099"
"Pearland","TX","Texas","Brazoria","29.5581","-95.3218","125983","998.1","America/Chicago","77047,77089,77584,77581,77588"
"Kenosha","WI","Wisconsin","Kenosha","42.5865","-87.8773","125807","1317","America/Chicago","53144,53140,53142,53143,53141"
"Arecibo","PR","Puerto Rico","Arecibo","18.4491","-66.7387","125548","1001.6","America/Puerto_Rico","00612,00613,00614"
"Meridian","ID","Idaho","Ada","43.6116","-116.3977","124865","1298.5","America/Boise","83646,83642,83680"
"Round Rock","TX","Texas","Williamson","30.527","-97.6642","124288","1258.3","America/Chicago","78681,78664,78665,78682,78683"
"Waldorf","MD","Maryland","Charles","38.6085","-76.9194","124186","879.5","America/New_York","20601,20603,20602,20675,20695,20604"
"Temple","TX","Texas","Bell","31.1068","-97.3891","123932","456.5","America/Chicago","76501,76502,76504,76508,76533"
"Lynchburg","VA","Virginia","Lynchburg","37.4003","-79.1909","123662","625.6","America/New_York","24515,24504,24502,24503,24501,24505,24506,24513,24514"
"Rochester","MN","Minnesota","Olmsted","44.0154","-92.478","123252","828.8","America/Chicago","55902,55903,55901,55906,55904,55905"
"Logan","UT","Utah","Cache","41.7399","-111.8422","122915","1151.4","America/Denver","84321,84322,84341"
"Arvada","CO","Colorado","Jefferson","39.832","-105.151","122835","1216.4","America/Denver","80005,80004,80007,80003,80002,80403,80001,80006"
"Clovis","CA","California","Fresno","36.8278","-119.683","122719","1804.6","America/Los_Angeles","93611,93612,93619,93613,93747"
"Independence","MO","Missouri","Jackson","39.0871","-94.3501","121944","603.7","America/Chicago","64054,64055,64056,64057,64050,64052,64053,64015,64016,64051"
"Redding","CA","California","Shasta","40.5698","-122.365","120849","605.5","America/Los_Angeles","96002,96003,96001"
"Greenville","NC","North Carolina","Pitt","35.5943","-77.376","120595","891.7","America/New_York","27834,27858,28590,27833,27835,27836"
"Duluth","MN","Minnesota","St. Louis","46.7756","-92.1393","120443","468","America/Chicago","55803,55802,55807,55806,55805,55804,55808,55810,55811,55812,55815,55816"
"Berkeley","CA","California","Alameda","37.8722","-122.276","120223","4449.7","America/Los_Angeles","94708,94707,94705,94704,94703,94702,94709,94710,94720,94701,94712"
"Boulder","CO","Colorado","Boulder","40.0248","-105.2524","120121","1526.6","America/Denver","80310,80304,80305,80302,80303,80301,80307,80309,80314"
"Pueblo","CO","Colorado","Pueblo","38.2701","-104.6114","120020","760.5","America/Denver","81004,81005,81003,81001,81008,81002,81010,81011,81012"
"West Palm Beach","FL","Florida","Palm Beach","26.7469","-80.132","119508","856.5","America/New_York","33411,33412,33417,33409,33407,33405,33401,33402,33422"
"Burlington","VT","Vermont","Chittenden","44.4876","-73.2316","118409","1673.2","America/New_York","05405,05401,05408,05406"
"Seaside","CA","California","Monterey","36.6224","-121.8199","118398","1383","America/Los_Angeles","93955"
"Richardson","TX","Texas","Dallas","32.9716","-96.7093","118269","1598.8","America/Chicago","75081,75080,75082,75045,75083,75085"
"Cambridge","MA","Massachusetts","Middlesex","42.3759","-71.1185","117794","7109.8","America/New_York","02142,02140,02141,02139,02138,02238,02477"
"Monroe","LA","Louisiana","Ouachita","32.5185","-92.0774","117507","613.5","America/Chicago","71212,71209,71203,71202,71201,71207,71210,71213,71217"
"North Charleston","SC","South Carolina","Charleston","32.9067","-80.0722","117460","581.7","America/New_York","29420,29456,29485,29404,29405,29406,29418,29416,29419,29423"
"Saginaw","MI","Michigan","Saginaw","43.4199","-83.9501","117412","991","America/Detroit","48602,48607,48601,48606,48663"
"Clearwater","FL","Florida","Pinellas","27.979","-82.7623","117075","1726.6","America/New_York","33759,33755,33756,33763,33761,33767,33764,33765,33757,33758,33766,33769"
"The Woodlands","TX","Texas","Montgomery","30.1738","-95.5134","116916","1043.1","America/Chicago","77381,77384,77380,77382,77389,77393"
"Brandon","FL","Florida","Hillsborough","27.9367","-82.3","116365","1356","America/New_York","33510,33594,33619,33511,33584,33508,33509,33595"
"St. Cloud","MN","Minnesota","Stearns","45.534","-94.1718","116347","671.3","America/Chicago","56304,56301,56303,56302,56372,56393,56395,56396"
"West Jordan","UT","Utah","Salt Lake","40.6024","-112.0008","116277","1377.7","America/Denver","84088,84081,84084"
"Broken Arrow","OK","Oklahoma","Tulsa","36.038","-95.7806","115919","710.9","America/Chicago","74014,74011,74012,74013"
"Harlingen","TX","Texas","Cameron","26.1916","-97.6977","115767","687.2","America/Chicago","78550,78552,78551,78553"
"Kailua","HI","Hawaii","Honolulu","21.392","-157.7396","115634","1975.3","Pacific/Honolulu","96734"
"Westminster","CO","Colorado","Adams","39.8837","-105.0624","115546","1410.9","America/Denver","80030,80031,80234,80005,80003,80021,80020,80035,80036"
"Gilroy","CA","California","Santa Clara","37.0046","-121.5854","115448","1367.4","America/Los_Angeles","95020"
"Richmond","CA","California","Contra Costa","37.9477","-122.3389","115396","1483.1","America/Los_Angeles","94530,94801,94803,94804,94805,94806,94802,94807,94808,94850"
"Mandeville","LA","Louisiana","St. Tammany","30.3751","-90.0904","115292","539.4","America/Chicago","70448,70471,70470"
"Utica","NY","New York","Oneida","43.0962","-75.2261","114961","1487.9","America/New_York","13501,13502,13503,13504,13505,13599"
"Ponce","PR","Puerto Rico","Ponce","18.0127","-66.6212","114940","1494.8","America/Puerto_Rico","00728,00717,00716,00730,00732,00733,00734"
"League City","TX","Texas","Galveston","29.4874","-95.1087","114885","863.7","America/Chicago","77573,77598,77511,77539,77565,77574,77592"
"Port Arthur","TX","Texas","Jefferson","29.8554","-93.9264","114860","285.1","America/Chicago","77655,77640,77642,77641,77643"
"Lowell","MA","Massachusetts","Middlesex","42.6389","-71.3217","114799","3256.6","America/New_York","01851,01850,01852,01854,01853"
"East Los Angeles","CA","California","Los Angeles","34.0326","-118.1691","114617","5937.6","America/Los_Angeles","90063,90022,90023"
"Carlsbad","CA","California","San Diego","33.1246","-117.2834","114500","1169.2","America/Los_Angeles","92008,92009,92011,92010,92013,92018"
"Elgin","IL","Illinois","Kane","42.0383","-88.324","114106","1154.1","America/Chicago","60120,60123,60124,60121,60122"
"Waterloo","IA","Iowa","Black Hawk","42.4918","-92.3522","113832","419.6","America/Chicago","50707,50703,50702,50701"
"Leominster","MA","Massachusetts","Worcester","42.5209","-71.7717","113462","585.4","America/New_York","1453"
"Bend","OR","Oregon","Deschutes","44.0563","-121.3095","113454","1114.1","America/Los_Angeles","97702,97703,97701,97708"
"Sioux City","IA","Iowa","Woodbury","42.4959","-96.3901","112823","559.1","America/Chicago","51106,51104,51105,51103,51101,51108,51109,51111"
"Gresham","OR","Oregon","Multnomah","45.5021","-122.4413","112818","1848.5","America/Los_Angeles","97030,97233,97230,97080"
"Longview","TX","Texas","Gregg","32.5193","-94.7622","112687","568.3","America/Chicago","75602,75601,75605,75604,75606,75608,75615,75660"
"Pompano Beach","FL","Florida","Broward","26.2428","-80.1312","112212","1800.3","America/New_York","33060,33062,33064,33069,33061,33074,33097"
"Downey","CA","California","Los Angeles","33.9379","-118.1311","111793","3478.3","America/Los_Angeles","90242,90240,90241,90239"
"Murrieta","CA","California","Riverside","33.5719","-117.1909","111621","1217.5","America/Los_Angeles","92563,92562"
"Idaho Falls","ID","Idaho","Bonneville","43.4871","-112.0362","111295","948.1","America/Boise","83401,83402,83404,83415"
"Miami Gardens","FL","Florida","Miami-Dade","25.9433","-80.2426","111264","2324.7","America/New_York","33014,33169,33055,33056,33054,33269"
"Everett","WA","Washington","Snohomish","47.9525","-122.1669","111083","1276.4","America/Los_Angeles","98207,98204,98203,98201,98208,98206,98213"
"Holland","MI","Michigan","Ottawa","42.7677","-86.0984","110905","781.7","America/Detroit","49423,49422"
"Costa Mesa","CA","California","Orange","33.6667","-117.9135","110538","2700.2","America/Los_Angeles","92626,92627,92628"
"Temecula","CA","California","Riverside","33.4928","-117.1315","110404","1146.6","America/Los_Angeles","92590,92591,92592,92589,92593"
"Jacksonville","NC","North Carolina","Onslow","34.7289","-77.3941","109958","581.6","America/New_York","28546,28547,28544,28542,28540,28543,28541,28545"
"San Buenaventura","CA","California","Ventura","34.2741","-119.2314","109900","1939.9","America/Los_Angeles","93004,93001,93003,93002,93005,93006,93007,93009"
"Sugar Land","TX","Texas","Fort Bend","29.5935","-95.6358","109735","1047","America/Chicago","77498,77478,77479,77487,77496"
"Chico","CA","California","Butte","39.7578","-121.8161","109411","1146.2","America/Los_Angeles","95973,95926,95928,95929,95927,95976"
"South Fulton","GA","Georgia","Fulton","33.6273","-84.58","109157","454","America/New_York","30336,30331,30272,30349,30291,30296,30213,30378,31131,31136"
"Sparks","NV","Nevada","Washoe","39.5736","-119.7161","109106","1154.3","America/Los_Angeles","89436,89434,89431,89432,89435"
"Eau Claire","WI","Wisconsin","Eau Claire","44.8197","-91.4948","108477","779.1","America/Chicago","54703,54701,54702"
"Auburn","AL","Alabama","Lee","32.6087","-85.4903","108327","482.9","America/Chicago","36849,36832,36830,36831"
"Dearborn","MI","Michigan","Wayne","42.3127","-83.213","107846","1717.3","America/Detroit","48128,48120,48126,48124,48121,48123"
"Riverview","FL","Florida","Hillsborough","27.8227","-82.3023","107776","901.1","America/New_York","33579,33578,33569,33568"
"Allen","TX","Texas","Collin","33.1088","-96.6735","107684","1574.8","America/Chicago","75002,75013"
"West Covina","CA","California","Los Angeles","34.0555","-117.9113","107436","2586.7","America/Los_Angeles","91792,91791,91790,91793"
"Centennial","CO","Colorado","Arapahoe","39.5926","-104.8673","107386","1374.9","America/Denver","80122,80121,80016,80015,80112,80111,80155,80161"
"Bloomington","IN","Indiana","Monroe","39.1637","-86.5257","107262","1308.5","America/Indiana/Indianapolis","47405,47408,47401,47403,47404,47406,47407"
"Sandy Springs","GA","Georgia","Fulton","33.9366","-84.3703","107198","1097.6","America/New_York","30350,30327,30328,30342,30358,31150,31156"
"El Monte","CA","California","Los Angeles","34.0739","-118.0291","107066","4325.4","America/Los_Angeles","91731,91733,91732,91734,91735"
"Hillsboro","OR","Oregon","Washington","45.5273","-122.936","107050","1563.1","America/Los_Angeles","97006,97123,97124,97129"
"Menifee","CA","California","Riverside","33.6909","-117.1849","107020","889.3","America/Los_Angeles","92587,92586,92585,92584,92564"
"Rio Rancho","NM","New Mexico","Sandoval","35.2873","-106.6982","106533","397.9","America/Denver","87121,87124,87144,87174"
"Davie","FL","Florida","Broward","26.0789","-80.287","106412","1177.4","America/New_York","33324,33325,33331,33330,33328,33314,33355"
"Jurupa Valley","CA","California","Riverside","34.001","-117.4706","106244","955.3","America/Los_Angeles","92509,91752,92519"
"Columbia","MD","Maryland","Howard","39.2004","-76.859","105871","1280.1","America/New_York","21044,21045,21046,21029,20588,21150"
"Inglewood","CA","California","Los Angeles","33.9566","-118.3444","105575","4495.6","America/Los_Angeles","90305,90304,90303,90302,90301,90306,90307,90308,90309,90311,90312"
"Spokane Valley","WA","Washington","Spokane","47.6626","-117.2346","105460","1079.5","America/Los_Angeles","99206,99016,99212,99216,99037,99211,99213,99215"
"Renton","WA","Washington","King","47.4784","-122.1918","105279","1726.7","America/Los_Angeles","98059,98058,98057,98056,98055"
"San Tan Valley","AZ","Arizona","Pinal","33.1786","-111.5629","105231","536.1","America/Phoenix","85143,85142,85140,85144"
"Burbank","CA","California","Los Angeles","34.1879","-118.3235","105165","2344.9","America/Los_Angeles","91506,91504,91505,91502,91501,91503,91507,91508,91510,91521,91522,91523"
"Brockton","MA","Massachusetts","Plymouth","42.0821","-71.0242","105080","1901.8","America/New_York","02301,02302,02303,02304,02305"
"El Cajon","CA","California","San Diego","32.8017","-116.9604","104909","2791.6","America/Los_Angeles","92020,92021,92019"
"Rialto","CA","California","San Bernardino","34.1175","-117.3892","103866","1664.6","America/Los_Angeles","92316,92376,92377"
"San Mateo","CA","California","San Mateo","37.5522","-122.3121","103555","3295.1","America/Los_Angeles","94404,94401,94402,94403,94497"
"Goodyear","AZ","Arizona","Maricopa","33.2614","-112.3622","102891","207.7","America/Phoenix","85139,85338,85326,85395"
"Charlottesville","VA","Virginia","Charlottesville","38.0375","-78.4855","102802","1728.4","America/New_York","22908,22901,22902,22903,22904,22905,22906,22909"
"Lafayette","CO","Colorado","Boulder","39.9946","-105.0998","102615","1271.2","America/Denver","80026"
"Lee's Summit","MO","Missouri","Jackson","38.9171","-94.3816","102583","619.9","America/Chicago","64086,64082,64064,64063,64081,64002"
"Edinburg","TX","Texas","Hidalgo","26.3196","-98.1597","102561","849.9","America/Chicago","78539,78542,78541"
"Daly City","CA","California","San Mateo","37.6862","-122.4685","102560","5176.6","America/Los_Angeles","94015,94014,94016,94017"
"Wichita Falls","TX","Texas","Wichita","33.9072","-98.5291","102558","548.5","America/Chicago","76309,76308,76310,76311,76306,76305,76302,76301,76307"
"Bowling Green","KY","Kentucky","Warren","36.9716","-86.4378","102247","677.1","America/Chicago","42104,42103,42101,42102"
"Longmont","CO","Colorado","Boulder","40.1686","-105.1005","102183","1305.7","America/Denver","80501,80503,80504"
"Vacaville","CA","California","Solano","38.3587","-121.9673","102085","1319.6","America/Los_Angeles","95687,95688"
"Highlands Ranch","CO","Colorado","Douglas","39.5419","-104.9708","101437","1613.8","America/Denver","80129,80126,80130,80163"
"Quincy","MA","Massachusetts","Norfolk","42.2506","-71.0187","101361","2361.4","America/New_York","02169,02171,02170,02269"
"Fishers","IN","Indiana","Hamilton","39.9588","-85.9659","100918","1076.9","America/Indiana/Indianapolis","46038,46040,46256,46037,46085"
"Lynn","MA","Massachusetts","Essex","42.4781","-70.9664","100905","3627.9","America/New_York","01905,01904,01902,01901,01903,01910"
"Norwalk","CA","California","Los Angeles","33.9069","-118.0829","100713","4005.8","America/Los_Angeles","90650,90651,90652"
"Carmel","IN","Indiana","Hamilton","39.965","-86.146","100501","790.5","America/Indiana/Indianapolis","46290,46032,46033,46280,46074,46082"
"Hesperia","CA","California","San Bernardino","34.3975","-117.3147","100141","532","America/Los_Angeles","92345,92344,92340"
"St. Augustine","FL","Florida","St. Johns","29.8976","-81.31","99936","607.4","America/New_York","32080,32095,32084"
"Buckeye","AZ","Arizona","Maricopa","33.4314","-112.6429","99844","97.5","America/Phoenix","85326,85340,85396"
"San Angelo","TX","Texas","Tom Green","31.4424","-100.4504","99507","639.7","America/Chicago","76905,76904,76901,76903,76909,76908,76886,76906"
"Federal Way","WA","Washington","King","47.3091","-122.3358","99232","1717","America/Los_Angeles","98023,98003,98063,98093"
"Bismarck","ND","North Dakota","Burleigh","46.8143","-100.7694","99060","825.4","America/Chicago","58505,58504,58501,58503,58507"
"Boca Raton","FL","Florida","Palm Beach","26.3752","-80.108","98833","1307.8","America/New_York","33496,33487,33486,33434,33432,33433,33431,33427,33429,33481,33499"
"New Braunfels","TX","Texas","Comal","29.6994","-98.1148","98700","846.4","America/Chicago","78132,78130,78131,78135"
"Vista","CA","California","San Diego","33.1896","-117.2386","98646","2007.7","America/Los_Angeles","92084,92083,92081,92085"
"Beaverton","OR","Oregon","Washington","45.4779","-122.8168","97502","1907.5","America/Los_Angeles","97225,97003,97005,97007,97006,97008,97075,97076,97077,97079"
"Portsmouth","VA","Virginia","Portsmouth","36.8468","-76.354","97299","1128.1","America/New_York","23709,23708,23704,23707,23701,23703,23702,23705"
"Orem","UT","Utah","Utah","40.2981","-111.6994","97048","2012.7","America/Denver","84097,84057,84058,84059"
"Conroe","TX","Texas","Montgomery","30.3238","-95.4824","96976","493.6","America/Chicago","77384,77301,77303,77304,77305"
"Suffolk","VA","Virginia","Suffolk","36.6953","-76.6398","96638","93.5","America/New_York","23433,23432,23437,23436,23435,23434,23438,23439"
"Sunrise","FL","Florida","Broward","26.1547","-80.2997","96633","2303.3","America/New_York","33322,33323,33326,33325,33351,33313,33307,33345"
"Lawrence","KS","Kansas","Douglas","38.9597","-95.2642","96380","1064.6","America/Chicago","66045,66044,66047,66046,66049"
"Arden-Arcade","CA","California","Sacramento","38.6017","-121.3845","96319","2339.6","America/Los_Angeles","95821,95864,95825,95860,95865,95866"
"Prescott Valley","AZ","Arizona","Yavapai","34.598","-112.3185","96190","458.7","America/Phoenix","86327,86315,86314,86312"
"Middletown","OH","Ohio","Butler","39.5033","-84.3659","95894","746.3","America/New_York","45044,45005,45042"
"San German","PR","Puerto Rico","San Germn","18.0827","-67.046","95622","1467.1","America/Puerto_Rico","683"
"Edmond","OK","Oklahoma","Oklahoma","35.6689","-97.416","95618","437.4","America/Chicago","73013,73007,73003,73034"
"Tracy","CA","California","San Joaquin","37.7269","-121.4523","95358","1397.9","America/Los_Angeles","95377,95376,95304"
"Manteca","CA","California","San Joaquin","37.7927","-121.2264","95347","1534.8","America/Los_Angeles","95337,95336"
"Kingsport","TN","Tennessee","Sullivan","36.5224","-82.5454","95059","405.9","America/New_York","37665,37664,37663,37660,37662,37669"
"Portsmouth","NH","New Hampshire","Rockingham","43.058","-70.7826","94815","550.6","America/New_York","03801,03802,03803,03804"
"Sandy","UT","Utah","Salt Lake","40.5709","-111.8506","94723","1507.7","America/Denver","84092,84093,84094,84070,84090,84091"
"Palm Coast","FL","Florida","Flagler","29.5389","-81.2457","94362","378.4","America/New_York","32164,32136,32137,32135,32142,32143"
"Slidell","LA","Louisiana","St. Tammany","30.2887","-89.7828","94220","727.4","America/Chicago","70460,70458,70459,70469"
"San Marcos","CA","California","San Diego","33.135","-117.1743","94078","1478.4","America/Los_Angeles","92078,92096,92069,92079"
"Livonia","MI","Michigan","Wayne","42.3972","-83.3733","94058","1017.4","America/Detroit","48152,48150,48154,48151,48153"
"Santa Fe","NM","New Mexico","Santa Fe","35.6619","-105.9819","94032","652.1","America/Denver","87505,87507,87501,87502,87503,87509"
"Plantation","FL","Florida","Broward","26.1259","-80.2617","94002","1668.6","America/New_York","33322,33323,33324,33325,33317,33313,33388,33318,33329"
"Atascocita","TX","Texas","Harris","29.9777","-95.1953","93926","1518.5","America/Chicago","77346,77396"
"Fall River","MA","Massachusetts","Bristol","41.7136","-71.1015","93764","1093","America/New_York","02724,02723,02720,02721,02717,02790,02747,02722"
"Compton","CA","California","Los Angeles","33.893","-118.2274","93525","3601.4","America/Los_Angeles","90220,90221,90222,90223"
"Carson","CA","California","Los Angeles","33.8374","-118.2559","93523","1927.8","America/Los_Angeles","90248,90810,90747,90746,90745,90224,90749,90895"
"La Crosse","WI","Wisconsin","La Crosse","43.8241","-91.2268","93163","921.1","America/Chicago","54603,54601,54602"
"Missoula","MT","Montana","Missoula","46.8751","-114.0214","92942","833.3","America/Denver","59812,59808,59803,59802,59801"
"O'Fallon","MO","Missouri","St. Charles","38.785","-90.7175","92697","1171.5","America/Chicago","63367,63366,63368"
"Mount Pleasant","SC","South Carolina","Charleston","32.8537","-79.8203","92662","720.5","America/New_York","29466,29464,29465"
"Roswell","GA","Georgia","Fulton","34.0391","-84.3513","92577","877.6","America/New_York","30075,30076,30077"
"Hoover","AL","Alabama","Jefferson","33.3763","-86.8068","92401","718.2","America/Chicago","35216,35226,35244,35242,35236,35260"
"Florence","SC","South Carolina","Florence","34.178","-79.7898","92315","625.5","America/New_York","29505,29506,29501,29502,29503,29504"
"Williamsburg","VA","Virginia","Williamsburg","37.2693","-76.7076","91935","672.3","America/New_York","23185,23188,23187"
"South Gate","CA","California","Los Angeles","33.9447","-118.1926","91836","4899.4","America/Los_Angeles","90280"
"Chino","CA","California","San Bernardino","33.9836","-117.6654","91775","1198.2","America/Los_Angeles","91708,91710"
